[
  {
    "school_id": 147836,
    "name": "21st Century Learning",
    "lat": 33.9347,
    "lng": -116.969,
    "start_date": 1429488000,
    "grade_low": "KG",
    "grade_high": "12",
    "city": "Beaumont",
    "state": "CA",
    "district_id": 4941,
    "district_name": "Beaumont USD",
    "total_students": "88 students"
  },
  {
    "school_id": 147229,
    "name": "6th Grade Center",
    "lat": 36.1128,
    "lng": -96.1288,
    "start_date": 1446595200,
    "grade_low": "ECE",
    "grade_high": "CE",
    "city": "Sand Springs",
    "state": "OK",
    "district_id": 33629,
    "district_name": "Sand Springs Public Schools",
    "total_students": "1,048 students"
  },
  {
    "school_id": 67855,
    "name": "A Brian Merry Elementary School",
    "lat": 33.4963,
    "lng": -82.0397,
    "start_date": 1512000000,
    "grade_low": "PK",
    "grade_high": "5",
    "city": "Augusta",
    "state": "GA",
    "district_id": 7273,
    "district_name": "Richmond County School System",
    "total_students": "364 students"
  },
  {
    "school_id": 98421,
    "name": "A W Edwards Elementary",
    "lat": 34.9099,
    "lng": -76.928,
    "start_date": 1422835200,
    "grade_low": "KG",
    "grade_high": "5",
    "city": "Havelock",
    "state": "NC",
    "district_id": 12917,
    "district_name": "Craven County Schools",
    "total_students": "622 students"
  },
  {
    "school_id": 151049,
    "name": "A. Crawford Mosley High School",
    "lat": 30.2101,
    "lng": -85.6438,
    "start_date": 1571270400,
    "grade_low": "9",
    "grade_high": "12",
    "city": "Lynn Haven",
    "state": "FL",
    "district_id": 35457,
    "district_name": "Bay District Schools",
    "total_students": "2,150"
  },
  {
    "school_id": 150597,
    "name": "A. E. Arnold Elementary",
    "lat": 33.827,
    "lng": -118.055,
    "start_date": 1565222400,
    "grade_low": "KG",
    "grade_high": "6",
    "city": "Cypress",
    "state": "CA",
    "district_id": 5104,
    "district_name": "Cypress SD",
    "total_students": "739 students"
  },
  {
    "school_id": 98408,
    "name": "A. H. Bangert Elementary",
    "lat": 35.0831,
    "lng": -77.083,
    "start_date": 1422835200,
    "grade_low": "KG",
    "grade_high": "5",
    "city": "Trent Woods",
    "state": "NC",
    "district_id": 12917,
    "district_name": "Craven County Schools",
    "total_students": "440 students"
  },
  {
    "school_id": 151660,
    "name": "A. L. Brown High",
    "lat": 35.496,
    "lng": -80.6187,
    "start_date": 0,
    "grade_low": "9",
    "grade_high": "12",
    "city": "Kannapolis",
    "state": "NC",
    "district_id": 35530,
    "district_name": "Kannapolis City Schools",
    "total_students": "1,637"
  },
  {
    "school_id": 150606,
    "name": "A. Montoya Elementary",
    "lat": 35.0767,
    "lng": -106.395,
    "start_date": 1567468800,
    "grade_low": "PK",
    "grade_high": "5",
    "city": "Tijeras",
    "state": "NM",
    "district_id": 35438,
    "district_name": "Albuquerque Public Schools",
    "total_students": "462 students"
  },
  {
    "school_id": 63160,
    "name": "A. Philip Randolph Academies",
    "lat": 30.3678,
    "lng": -81.6768,
    "start_date": 1470700800,
    "grade_low": "6",
    "grade_high": "12",
    "city": "Jacksonville",
    "state": "FL",
    "district_id": 7089,
    "district_name": "Duval County Public Schools",
    "total_students": "412"
  },
  {
    "school_id": 148823,
    "name": "A. Philip Randolph Career and Technical Center",
    "lat": 42.4175,
    "lng": -83.1914,
    "start_date": 1541635200,
    "grade_low": "ECE",
    "grade_high": "CE",
    "city": "Detroit",
    "state": "MI",
    "district_id": 10598,
    "district_name": "Detroit Public Schools",
    "total_students": "104 students"
  },
  {
    "school_id": 37706,
    "name": "A.C. New Middle",
    "lat": 32.7199,
    "lng": -96.5953,
    "start_date": 1442361600,
    "grade_low": "7",
    "grade_high": "8",
    "city": "Balch Springs",
    "state": "TX",
    "district_id": 1896,
    "district_name": "Mesquite ISD",
    "total_students": "1,000 students"
  },
  {
    "school_id": 87645,
    "name": "A.C.E. High School",
    "lat": 42.6601,
    "lng": -83.1138,
    "start_date": 1408424400,
    "grade_low": "9",
    "grade_high": "12",
    "city": "Rochester Hills",
    "state": "MI",
    "district_id": 11028,
    "district_name": "Rochester Community Schools",
    "total_students": "60 students"
  },
  {
    "school_id": 99431,
    "name": "A.G. Cox Middle",
    "lat": 35.5246,
    "lng": -77.4013,
    "start_date": 1422316800,
    "grade_low": "6",
    "grade_high": "8",
    "city": "Winterville",
    "state": "NC",
    "district_id": 13012,
    "district_name": "Pitt County Schools",
    "total_students": "812 students"
  },
  {
    "school_id": 147906,
    "name": "A.G. Wright Middle School",
    "lat": 38.4741,
    "lng": -77.4808,
    "start_date": 1484092800,
    "grade_low": "6",
    "grade_high": "8",
    "city": "Stafford Courthouse",
    "state": "VA",
    "district_id": 2884,
    "district_name": "Stafford County PS",
    "total_students": "900 students"
  },
  {
    "school_id": 23426,
    "name": "A.L. Corbett Middle School",
    "lat": 33.6594,
    "lng": -81.3655,
    "start_date": 1472169600,
    "grade_low": "6",
    "grade_high": "8",
    "city": "Wagener",
    "state": "SC",
    "district_id": 763,
    "district_name": "Aiken 01",
    "total_students": "194 students"
  },
  {
    "school_id": 86886,
    "name": "A.L. Holmes Academy of Blended Learning",
    "lat": 42.3948,
    "lng": -83.0142,
    "start_date": 1541635200,
    "grade_low": "ECE",
    "grade_high": "CE",
    "city": "Detroit",
    "state": "MI",
    "district_id": 10598,
    "district_name": "Detroit Public Schools",
    "total_students": "422"
  },
  {
    "school_id": 111000,
    "name": "Aaron Cohn Middle School",
    "lat": 32.5496,
    "lng": -84.825,
    "start_date": 1424995200,
    "grade_low": "6",
    "grade_high": "8",
    "city": "Columbus",
    "state": "GA",
    "district_id": 7253,
    "district_name": "Muscogee County",
    "total_students": "660 students"
  },
  {
    "school_id": 151738,
    "name": "Abbotts Creek Elementary School",
    "lat": 35.9028,
    "lng": -78.578,
    "start_date": 1423440000,
    "grade_low": null,
    "grade_high": null,
    "city": "Raleigh",
    "state": "NC",
    "district_id": 13059,
    "district_name": "Wake County PSS",
    "total_students": "858 students"
  },
  {
    "school_id": 68280,
    "name": "Abbotts Hill Elementary",
    "lat": 34.0563,
    "lng": -84.1971,
    "start_date": 1414108800,
    "grade_low": "PK",
    "grade_high": "5",
    "city": "Johns Creek",
    "state": "GA",
    "district_id": 7212,
    "district_name": "Fulton County",
    "total_students": "616 students"
  },
  {
    "school_id": 58117,
    "name": "Abby Reinke Elementary",
    "lat": 33.4916,
    "lng": -117.088,
    "start_date": 1343779200,
    "grade_low": "KG",
    "grade_high": "5",
    "city": "Temecula",
    "state": "CA",
    "district_id": 5869,
    "district_name": "Temecula Valley USD",
    "total_students": "795 students"
  },
  {
    "school_id": 109023,
    "name": "ABC ADULT",
    "lat": 33.8782,
    "lng": -118.07,
    "start_date": 1528416000,
    "grade_low": "ECE",
    "grade_high": "CE",
    "city": "Cerritos",
    "state": "CA",
    "district_id": 4879,
    "district_name": "ABC USD",
    "total_students": "16,000 students"
  },
  {
    "school_id": 31089,
    "name": "Aberdeen Elementary",
    "lat": 37.0335,
    "lng": -76.4052,
    "start_date": 1517184000,
    "grade_low": "PK",
    "grade_high": "5",
    "city": "Hampton",
    "state": "VA",
    "district_id": 2823,
    "district_name": "Hampton City PS",
    "total_students": "465 students"
  },
  {
    "school_id": 63161,
    "name": "Abess Park Elementary School",
    "lat": 30.3229,
    "lng": -81.4777,
    "start_date": 1470700800,
    "grade_low": "PK",
    "grade_high": "5",
    "city": "Jacksonville",
    "state": "FL",
    "district_id": 7089,
    "district_name": "Duval County Public Schools",
    "total_students": "650 students"
  },
  {
    "school_id": 24854,
    "name": "Abingdon Elementary",
    "lat": 38.8399,
    "lng": -77.0959,
    "start_date": 1445212800,
    "grade_low": "PK",
    "grade_high": "5",
    "city": "Arlington",
    "state": "VA",
    "district_id": 2774,
    "district_name": "Arlington PS",
    "total_students": "671 students"
  }
]
