[{"school_id": 147836, "name": "21st Century Learning", "lat": 33.9347, "lng": -116.969, "start_date": 1429488000, "grade_low": "KG", "grade_high": "12", "city": "Beaumont", "state": "CA", "district_id": 4941, "district_name": "Beaumont USD", "total_students": "88 students"}, {"school_id": 147229, "name": "6th Grade Center", "lat": 36.1128, "lng": -96.1288, "start_date": 1446595200, "grade_low": "ECE", "grade_high": "CE", "city": "Sand Springs", "state": "OK", "district_id": 33629, "district_name": "Sand Springs Public Schools", "total_students": "1,048 students"}, {"school_id": 67855, "name": "A Brian Merry Elementary School", "lat": 33.4963, "lng": -82.0397, "start_date": 1512000000, "grade_low": "PK", "grade_high": "5", "city": "Augusta", "state": "GA", "district_id": 7273, "district_name": "Richmond County School System", "total_students": "364 students"}, {"school_id": 98421, "name": "A W Edwards Elementary", "lat": 34.9099, "lng": -76.928, "start_date": 1422835200, "grade_low": "KG", "grade_high": "5", "city": "Havelock", "state": "NC", "district_id": 12917, "district_name": "Craven County Schools", "total_students": "622 students"}, {"school_id": 151049, "name": "A. Crawford Mosley High School", "lat": 30.2101, "lng": -85.6438, "start_date": 1571270400, "grade_low": "9", "grade_high": "12", "city": "Lynn Haven", "state": "FL", "district_id": 35457, "district_name": "Bay District Schools", "total_students": "2,150"}, {"school_id": 150597, "name": "A. E. Arnold Elementary", "lat": 33.827, "lng": -118.055, "start_date": 1565222400, "grade_low": "KG", "grade_high": "6", "city": "Cypress", "state": "CA", "district_id": 5104, "district_name": "Cypress SD", "total_students": "739 students"}, {"school_id": 98408, "name": "A. H. Bangert Elementary", "lat": 35.0831, "lng": -77.083, "start_date": 1422835200, "grade_low": "KG", "grade_high": "5", "city": "Trent Woods", "state": "NC", "district_id": 12917, "district_name": "Craven County Schools", "total_students": "440 students"}, {"school_id": 151660, "name": "A. L. Brown High", "lat": 35.496, "lng": -80.6187, "start_date": 0, "grade_low": "9", "grade_high": "12", "city": "Kannapolis", "state": "NC", "district_id": 35530, "district_name": "Kannapolis City Schools", "total_students": "1,637"}, {"school_id": 150606, "name": "A. Montoya Elementary", "lat": 35.0767, "lng": -106.395, "start_date": 1567468800, "grade_low": "PK", "grade_high": "5", "city": "Tijeras", "state": "NM", "district_id": 35438, "district_name": "Albuquerque Public Schools", "total_students": "462 students"}, {"school_id": 63160, "name": "A. Philip Randolph Academies", "lat": 30.3678, "lng": -81.6768, "start_date": 1470700800, "grade_low": "6", "grade_high": "12", "city": "Jacksonville", "state": "FL", "district_id": 7089, "district_name": "Duval County Public Schools", "total_students": "412"}, {"school_id": 148823, "name": "A. Philip Randolph Career and Technical Center", "lat": 42.4175, "lng": -83.1914, "start_date": 1541635200, "grade_low": "ECE", "grade_high": "CE", "city": "Detroit", "state": "MI", "district_id": 10598, "district_name": "Detroit Public Schools", "total_students": "104 students"}, {"school_id": 37706, "name": "A.C. New Middle", "lat": 32.7199, "lng": -96.5953, "start_date": 1442361600, "grade_low": "7", "grade_high": "8", "city": "Balch Springs", "state": "TX", "district_id": 1896, "district_name": "Mesquite ISD", "total_students": "1,000 students"}, {"school_id": 87645, "name": "A.C.E. High School", "lat": 42.6601, "lng": -83.1138, "start_date": 1408424400, "grade_low": "9", "grade_high": "12", "city": "Rochester Hills", "state": "MI", "district_id": 11028, "district_name": "Rochester Community Schools", "total_students": "60 students"}, {"school_id": 99431, "name": "A.G. Cox Middle", "lat": 35.5246, "lng": -77.4013, "start_date": 1422316800, "grade_low": "6", "grade_high": "8", "city": "Winterville", "state": "NC", "district_id": 13012, "district_name": "Pitt County Schools", "total_students": "812 students"}, {"school_id": 147906, "name": "A.G. Wright Middle School", "lat": 38.4741, "lng": -77.4808, "start_date": 1484092800, "grade_low": "6", "grade_high": "8", "city": "Stafford Courthouse", "state": "VA", "district_id": 2884, "district_name": "Stafford County PS", "total_students": "900 students"}, {"school_id": 23426, "name": "A.L. Corbett Middle School", "lat": 33.6594, "lng": -81.3655, "start_date": 1472169600, "grade_low": "6", "grade_high": "8", "city": "Wagener", "state": "SC", "district_id": 763, "district_name": "Aiken 01", "total_students": "194 students"}, {"school_id": 86886, "name": "A.L. Holmes Academy of Blended Learning", "lat": 42.3948, "lng": -83.0142, "start_date": 1541635200, "grade_low": "ECE", "grade_high": "CE", "city": "Detroit", "state": "MI", "district_id": 10598, "district_name": "Detroit Public Schools", "total_students": "422"}, {"school_id": 111000, "name": "Aaron Cohn Middle School", "lat": 32.5496, "lng": -84.825, "start_date": 1424995200, "grade_low": "6", "grade_high": "8", "city": "Columbus", "state": "GA", "district_id": 7253, "district_name": "Muscogee County", "total_students": "660 students"}, {"school_id": 151738, "name": "Abbotts Creek Elementary School", "lat": 35.9028, "lng": -78.578, "start_date": 1423440000, "grade_low": null, "grade_high": null, "city": "Raleigh", "state": "NC", "district_id": 13059, "district_name": "Wake County PSS", "total_students": "858 students"}, {"school_id": 68280, "name": "Abbotts Hill Elementary", "lat": 34.0563, "lng": -84.1971, "start_date": 1414108800, "grade_low": "PK", "grade_high": "5", "city": "Johns Creek", "state": "GA", "district_id": 7212, "district_name": "Fulton County", "total_students": "616 students"}, {"school_id": 58117, "name": "Abby Reinke Elementary", "lat": 33.4916, "lng": -117.088, "start_date": 1343779200, "grade_low": "KG", "grade_high": "5", "city": "Temecula", "state": "CA", "district_id": 5869, "district_name": "Temecula Valley USD", "total_students": "795 students"}, {"school_id": 109023, "name": "ABC ADULT", "lat": 33.8782, "lng": -118.07, "start_date": 1528416000, "grade_low": "ECE", "grade_high": "CE", "city": "Cerritos", "state": "CA", "district_id": 4879, "district_name": "ABC USD", "total_students": "16,000 students"}, {"school_id": 31089, "name": "Aberdeen Elementary", "lat": 37.0335, "lng": -76.4052, "start_date": 1517184000, "grade_low": "PK", "grade_high": "5", "city": "Hampton", "state": "VA", "district_id": 2823, "district_name": "Hampton City PS", "total_students": "465 students"}, {"school_id": 63161, "name": "Abess Park Elementary School", "lat": 30.3229, "lng": -81.4777, "start_date": 1470700800, "grade_low": "PK", "grade_high": "5", "city": "Jacksonville", "state": "FL", "district_id": 7089, "district_name": "Duval County Public Schools", "total_students": "650 students"}, {"school_id": 24854, "name": "Abingdon Elementary", "lat": 38.8399, "lng": -77.0959, "start_date": 1445212800, "grade_low": "PK", "grade_high": "5", "city": "Arlington", "state": "VA", "district_id": 2774, "district_name": "Arlington PS", "total_students": "671 students"}, {"school_id": 40663, "name": "Abner Creek Academy", "lat": 34.8695, "lng": -82.1642, "start_date": 1409011200, "grade_low": "PK", "grade_high": "4", "city": "Duncan", "state": "SC", "district_id": 850, "district_name": "Spartanburg District 5", "total_students": "625 students"}, {"school_id": 147747, "name": "Abraham Lincoln Elementary", "lat": 33.7344, "lng": -116.373, "start_date": 1476403200, "grade_low": "KG", "grade_high": "5", "city": "Palm Desert", "state": "CA", "district_id": 5119, "district_name": "Desert Sands USD", "total_students": "609 students"}, {"school_id": 148557, "name": "Abraham Lincoln Elementary", "lat": 34.228, "lng": -118.253, "start_date": 1517875200, "grade_low": "KG", "grade_high": "6", "city": "Glendale", "state": "CA", "district_id": 5220, "district_name": "Glendale USD", "total_students": "490 students"}, {"school_id": 57447, "name": "Abraham Lincoln Elementary", "lat": 33.5948, "lng": -117.868, "start_date": 1396310400, "grade_low": "KG", "grade_high": "6", "city": "Newport Beach", "state": "CA", "district_id": 5532, "district_name": "Newport Mesa Unified", "total_students": "455 students"}, {"school_id": 52073, "name": "Abraham Lincoln Elementary", "lat": 33.7405, "lng": -117.902, "start_date": 1409616000, "grade_low": "KG", "grade_high": "5", "city": "Santa Ana", "state": "CA", "district_id": 5742, "district_name": "Santa Ana USD", "total_students": "790 students"}, {"school_id": 148835, "name": "Abraham Lincoln Elementary School", "lat": 38.4413, "lng": -122.737, "start_date": 1533686400, "grade_low": "KG", "grade_high": "5", "city": "Santa Rosa", "state": "CA", "district_id": 5763, "district_name": "Santa Rosa City Schools", "total_students": "289 students"}, {"school_id": 115409, "name": "Abraham Lincoln Elementary School", "lat": 42.3629, "lng": -122.837, "start_date": 1439787600, "grade_low": "KG", "grade_high": "6", "city": "Medford", "state": "OR", "district_id": 33779, "district_name": "Medford School District 549C", "total_students": "549 students"}, {"school_id": 69762, "name": "Abraham Lincoln High School", "lat": 41.2576, "lng": -95.8193, "start_date": 1409184000, "grade_low": "9", "grade_high": "12", "city": "Council Bluffs", "state": "IA", "district_id": 7398, "district_name": "Council Bluffs Community SD", "total_students": "1,334"}, {"school_id": 39227, "name": "Abraham Lincoln Middle School", "lat": 29.8664, "lng": -93.9493, "start_date": 1503360000, "grade_low": "6", "grade_high": "8", "city": "Port Arthur", "state": "TX", "district_id": 2040, "district_name": "Port Arthur Isd", "total_students": "646 students"}, {"school_id": 114993, "name": "Abraham Lincoln School", "lat": 41.3968, "lng": -81.573, "start_date": 1579564800, "grade_low": "PK", "grade_high": "1", "city": "Maple Heights", "state": "OH", "district_id": 35441, "district_name": "Maple Heights City Schools", "total_students": "557 students"}, {"school_id": 148905, "name": "Abraham Lincoln Traditional School", "lat": 33.581, "lng": -112.144, "start_date": 1536105600, "grade_low": "KG", "grade_high": "8", "city": "Phoenix", "state": "AZ", "district_id": 4850, "district_name": "Washington ESD", "total_students": "610 students"}, {"school_id": 150109, "name": "Abraham Mallinson Elementary", "lat": 39.1166, "lng": -94.4352, "start_date": 1552435200, "grade_low": "2", "grade_high": "5", "city": "Sugar Creek", "state": "MO", "district_id": 11940, "district_name": "Independence SD", "total_students": "377 students"}, {"school_id": 147121, "name": "Abraxas High", "lat": 32.9745, "lng": -117.061, "start_date": 1344988800, "grade_low": "9", "grade_high": "12", "city": "Poway", "state": "CA", "district_id": 5639, "district_name": "Poway USD", "total_students": "199 students"}, {"school_id": 148061, "name": "Acacia Elementary", "lat": 33.882, "lng": -117.898, "start_date": 1501804800, "grade_low": "KG", "grade_high": "6", "city": "Fullerton", "state": "CA", "district_id": 5207, "district_name": "Fullerton SD", "total_students": "709 students"}, {"school_id": 47375, "name": "Acacia Elementary School", "lat": 33.6162, "lng": -112.125, "start_date": 1536105600, "grade_low": "KG", "grade_high": "6", "city": "Phoenix", "state": "AZ", "district_id": 4850, "district_name": "Washington ESD", "total_students": "865 students"}, {"school_id": 149075, "name": "Academies of Loudoun", "lat": 39.0429, "lng": -77.5504, "start_date": 1476230400, "grade_low": "ECE", "grade_high": "CE", "city": "Leesburg", "state": "VA", "district_id": 2837, "district_name": "Loudoun County PS", "total_students": "1,542 students"}, {"school_id": 126025, "name": "Academy Central Elementary", "lat": 36.1809, "lng": -96.0127, "start_date": 1458604800, "grade_low": "PK", "grade_high": "6", "city": "Tulsa", "state": "OK", "district_id": 33685, "district_name": "Tulsa Public Schools", "total_students": "137 students"}, {"school_id": 110237, "name": "Academy For Change", "lat": 39.7593, "lng": -121.859, "start_date": 1467331200, "grade_low": "7", "grade_high": "12", "city": "Chico", "state": "CA", "district_id": 5052, "district_name": "Chico Unified", "total_students": "13 students"}, {"school_id": 147102, "name": "Academy For Innovative Studies Middle School (6-8)", "lat": 38.0067, "lng": -87.5731, "start_date": 1439164800, "grade_low": "6", "grade_high": "8", "city": "Evansville", "state": "IN", "district_id": 8904, "district_name": "Evansville Vanderburgh School Corporation", "total_students": "657 students"}, {"school_id": 147296, "name": "Academy Of Choice", "lat": 29.7955, "lng": -95.512, "start_date": 1470096000, "grade_low": "8", "grade_high": "12", "city": "Houston", "state": "TX", "district_id": 2220, "district_name": "Spring Branch ISD", "total_students": "160 students"}, {"school_id": 148419, "name": "Academy of Richmond County", "lat": 33.4738, "lng": -82.0054, "start_date": 1512000000, "grade_low": "9", "grade_high": "12", "city": "Augusta", "state": "GA", "district_id": 7273, "district_name": "Richmond County School System", "total_students": "1,175"}, {"school_id": 148824, "name": "Academy of the Americas Elementary-Middle School", "lat": 42.3271, "lng": -83.1107, "start_date": 1541635200, "grade_low": "KG", "grade_high": "5", "city": "Detroit", "state": "MI", "district_id": 10598, "district_name": "Detroit Public Schools", "total_students": "872 students"}, {"school_id": 148825, "name": "Academy of the Americas High School", "lat": 42.321, "lng": -83.0763, "start_date": 1541635200, "grade_low": "9", "grade_high": "12", "city": "Detroit", "state": "MI", "district_id": 10598, "district_name": "Detroit Public Schools", "total_students": "872 students or School Overview"}, {"school_id": 151263, "name": "ACES High School", "lat": 47.9111, "lng": -122.243, "start_date": 1579132800, "grade_low": "9", "grade_high": "12", "city": "Everett", "state": "WA", "district_id": 35474, "district_name": "Mukilteo School District", "total_students": "164 students"}, {"school_id": 42147, "name": "Achieve Academy", "lat": 33.0037, "lng": -96.5329, "start_date": 1429678800, "grade_low": "ECE", "grade_high": "CE", "city": "Wylie", "state": "TX", "district_id": 2395, "district_name": "Wylie ISD", "total_students": "135"}, {"school_id": 37684, "name": "Achziger Elementary", "lat": 32.7666, "lng": -96.5937, "start_date": 1442361600, "grade_low": "PK", "grade_high": "5", "city": "Mesquite", "state": "TX", "district_id": 1896, "district_name": "Mesquite ISD", "total_students": "879 students"}, {"school_id": 147313, "name": "Ackerman Center", "lat": 45.2531, "lng": -122.684, "start_date": 1454976000, "grade_low": "6", "grade_high": "8", "city": "Canby", "state": "OR", "district_id": 14919, "district_name": "Canby SD 86", "total_students": "464 students"}, {"school_id": 110136, "name": "ACP Oakland Campus (Grades 6-8)", "lat": 33.3109, "lng": -111.845, "start_date": 1490659200, "grade_low": "6", "grade_high": "8", "city": "Chandler", "state": "AZ", "district_id": 4345, "district_name": "Chandler USD", "total_students": "699 students"}, {"school_id": 28466, "name": "Adams Elementary", "lat": 47.6212, "lng": -117.368, "start_date": 1564617600, "grade_low": "PK", "grade_high": "6", "city": "Spokane", "state": "WA", "district_id": 3144, "district_name": "Spokane Public Schools", "total_students": "386 students"}, {"school_id": 55194, "name": "Adams Elementary", "lat": 36.9577, "lng": -120.081, "start_date": 1431561600, "grade_low": "KG", "grade_high": "6", "city": "Madera", "state": "CA", "district_id": 5420, "district_name": "Madera Unified", "total_students": "805 students"}, {"school_id": 52935, "name": "Adams Elementary", "lat": 33.6748, "lng": -117.932, "start_date": 1396310400, "grade_low": "KG", "grade_high": "6", "city": "Costa Mesa", "state": "CA", "district_id": 5532, "district_name": "Newport Mesa Unified", "total_students": "408 students"}, {"school_id": 52534, "name": "Adams Elementary", "lat": 32.7616, "lng": -117.118, "start_date": 1426118400, "grade_low": "KG", "grade_high": "5", "city": "San Diego", "state": "CA", "district_id": 5711, "district_name": "San Diego USD", "total_students": "276 students"}, {"school_id": 52074, "name": "Adams Elementary", "lat": 33.7179, "lng": -117.897, "start_date": 1409616000, "grade_low": "KG", "grade_high": "5", "city": "Santa Ana", "state": "CA", "district_id": 5742, "district_name": "Santa Ana USD", "total_students": "420 students"}, {"school_id": 56700, "name": "Adams Elementary", "lat": 33.8087, "lng": -118.318, "start_date": 1553731200, "grade_low": "KG", "grade_high": "5", "city": "Torrance", "state": "CA", "district_id": 5876, "district_name": "Torrance USD", "total_students": "449 students"}, {"school_id": 118833, "name": "Adams Elementary", "lat": 35.2282, "lng": -97.4569, "start_date": 1533513600, "grade_low": "PK", "grade_high": "5", "city": "Norman", "state": "OK", "district_id": 33555, "district_name": "Norman Public Schools", "total_students": "614 students"}, {"school_id": 147797, "name": "Adams Elementary School", "lat": 33.4015, "lng": -111.867, "start_date": 1484028000, "grade_low": "PK", "grade_high": "6", "city": "Mesa", "state": "AZ", "district_id": 4583, "district_name": "Mesa Public Schools", "total_students": "690 students"}, {"school_id": 148126, "name": "Adams Elementary School", "lat": 38.0094, "lng": -121.315, "start_date": 1501804800, "grade_low": "KG", "grade_high": "8", "city": "Stockton", "state": "CA", "district_id": 5845, "district_name": "Stockton USD", "total_students": "480 students"}, {"school_id": 71438, "name": "Adams Elementary School", "lat": 43.8286, "lng": -111.778, "start_date": 1441083600, "grade_low": "KG", "grade_high": "4", "city": "Rexburg", "state": "ID", "district_id": 7745, "district_name": "Madison District", "total_students": "288 students"}, {"school_id": 148235, "name": "Adams Elementary School", "lat": 36.3983, "lng": -97.8455, "start_date": 1502755200, "grade_low": "KG", "grade_high": "5", "city": "Enid", "state": "OK", "district_id": 14810, "district_name": "Enid Public Schools", "total_students": "294 students"}, {"school_id": 148641, "name": "Adams Elementary School", "lat": 38.8207, "lng": -104.788, "start_date": 1523491200, "grade_low": "PK", "grade_high": "5", "city": "Colorado Springs", "state": "CO", "district_id": 30678, "district_name": "Colorado Springs SD 11", "total_students": "462 students"}, {"school_id": 77170, "name": "Adams High School", "lat": 41.667, "lng": -86.2229, "start_date": 1389052800, "grade_low": "9", "grade_high": "12", "city": "South Bend", "state": "IN", "district_id": 9102, "district_name": "South Bend Community School Corporation", "total_students": "1,913"}, {"school_id": 150639, "name": "Adams Middle", "lat": 37.9196, "lng": -121.759, "start_date": 1568937600, "grade_low": "6", "grade_high": "8", "city": "Brentwood", "state": "CA", "district_id": 4979, "district_name": "Brentwood Union School District", "total_students": "1,129 students"}, {"school_id": 64127, "name": "Adams Middle School", "lat": 28.0419, "lng": -82.4672, "start_date": 1470700800, "grade_low": "6", "grade_high": "8", "city": "Tampa", "state": "FL", "district_id": 7107, "district_name": "Hillsborough County PS", "total_students": "846 students"}, {"school_id": 49987, "name": "Addams Elementary", "lat": 36.7644, "lng": -119.837, "start_date": 1553558400, "grade_low": "KG", "grade_high": "6", "city": "Fresno", "state": "CA", "district_id": 5205, "district_name": "Fresno USD", "total_students": "797 students"}, {"school_id": 149478, "name": "ADDENBROOKE CLASSICAL ACADEMY", "lat": 39.6442, "lng": -105.076, "start_date": 1554076800, "grade_low": "PK", "grade_high": "12", "city": "Denver", "state": "CO", "district_id": 6399, "district_name": "Jeffco Public Schools", "total_students": "373 students"}, {"school_id": 50035, "name": "Addicott Elementary", "lat": 36.7825, "lng": -119.737, "start_date": 1553558400, "grade_low": "KG", "grade_high": "7", "city": "Fresno", "state": "CA", "district_id": 5205, "district_name": "Fresno USD", "total_students": "52 students"}, {"school_id": 76643, "name": "Adelaide De Vaney Elementary School", "lat": 39.4569, "lng": -87.3705, "start_date": 1427760000, "grade_low": "KG", "grade_high": "5", "city": "Terre Haute", "state": "IN", "district_id": 9152, "district_name": "Vigo County School Corporation", "total_students": "469 students"}, {"school_id": 30290, "name": "Adelaide Elementary", "lat": 40.8499, "lng": -111.9, "start_date": 1389744000, "grade_low": "KG", "grade_high": "6", "city": "Bountiful", "state": "UT", "district_id": 2421, "district_name": "Davis District", "total_students": "516 students"}, {"school_id": 150116, "name": "Adelanto Elementary School", "lat": 34.5757, "lng": -117.409, "start_date": 1554163200, "grade_low": "KG", "grade_high": "6", "city": "Adelanto", "state": "CA", "district_id": 4883, "district_name": "Adelanto ESD", "total_students": "8,672 students"}, {"school_id": 113446, "name": "Adena Elementary (3-6)", "lat": 39.3158, "lng": -84.3853, "start_date": 1538092800, "grade_low": "2", "grade_high": "6", "city": null, "state": "OH", "district_id": 33178, "district_name": "Lakota Local SD", "total_students": "599 students"}, {"school_id": 147813, "name": "Adkins Elementary School", "lat": 33.0764, "lng": -97.1115, "start_date": 1483488000, "grade_low": "PK", "grade_high": "5", "city": "Lantana", "state": "TX", "district_id": 1452, "district_name": "Denton Isd", "total_students": "407 students"}, {"school_id": 31214, "name": "Admiral Richard E. Byrd Middle School", "lat": 39.1246, "lng": -78.1493, "start_date": 1456704000, "grade_low": "6", "grade_high": "8", "city": "Winchester", "state": "VA", "district_id": 2813, "district_name": "Frederick County PS", "total_students": "966 students"}, {"school_id": 102091, "name": "Adobe Acres Elementary", "lat": 35.0218, "lng": -106.686, "start_date": 1567468800, "grade_low": "PK", "grade_high": "5", "city": "Albuquerque", "state": "NM", "district_id": 35438, "district_name": "Albuquerque Public Schools", "total_students": "550 students"}, {"school_id": 52498, "name": "Adobe Bluffs Elementary", "lat": 32.9734, "lng": -117.141, "start_date": 1344988800, "grade_low": "KG", "grade_high": "5", "city": "San Diego", "state": "CA", "district_id": 5639, "district_name": "Poway USD", "total_students": "430 students"}, {"school_id": 147056, "name": "Adult & Career Education", "lat": 34.0548, "lng": -117.773, "start_date": 1440374400, "grade_low": "CE", "grade_high": "CE", "city": "Pomona", "state": "CA", "district_id": 5633, "district_name": "Pomona Unified School District", "total_students": "a\u00b7dult"}, {"school_id": 148754, "name": "Adult & Family Education", "lat": 38.8613, "lng": -104.783, "start_date": 1523491200, "grade_low": "CE", "grade_high": "CE", "city": "Colorado Springs", "state": "CO", "district_id": 30678, "district_name": "Colorado Springs SD 11", "total_students": "a\u00b7dult"}, {"school_id": 148826, "name": "Adult Ed Center - East", "lat": 42.4369, "lng": -82.9824, "start_date": 1541635200, "grade_low": "CE", "grade_high": "CE", "city": "Detroit", "state": "MI", "district_id": 10598, "district_name": "Detroit Public Schools", "total_students": "110 students"}, {"school_id": 147749, "name": "Advanced Learning Academy", "lat": 33.7453, "lng": -117.864, "start_date": 1409616000, "grade_low": "ECE", "grade_high": "CE", "city": "Santa Ana", "state": "CA", "district_id": 5742, "district_name": "Santa Ana USD", "total_students": "364 students"}, {"school_id": 93143, "name": "Affton High", "lat": 38.5594, "lng": -90.3232, "start_date": 1392681600, "grade_low": "9", "grade_high": "12", "city": "Affton", "state": "MO", "district_id": 11732, "district_name": "Affton SD", "total_students": "773 students"}, {"school_id": 93007, "name": "African-Centered Prep Elementary", "lat": 39.0097, "lng": -94.5433, "start_date": 1441065600, "grade_low": "PK", "grade_high": "6", "city": "KCMO", "state": "MO", "district_id": 11952, "district_name": "Kansas City 33", "total_students": "423 students"}, {"school_id": 37685, "name": "Agnew Middle School", "lat": 32.7571, "lng": -96.5937, "start_date": 1442361600, "grade_low": "7", "grade_high": "8", "city": "Mesquite", "state": "TX", "district_id": 1896, "district_name": "Mesquite ISD", "total_students": "1,243 students"}, {"school_id": 55996, "name": "Agoura High School", "lat": 34.1504, "lng": -118.749, "start_date": 1438732800, "grade_low": "9", "grade_high": "12", "city": "Agoura Hills", "state": "CA", "district_id": 5361, "district_name": "Las Virgenes Unified School District", "total_students": "1,972"}, {"school_id": 57612, "name": "Agua Caliente Elementary", "lat": 33.8243, "lng": -116.49, "start_date": 1468540800, "grade_low": "KG", "grade_high": "5", "city": "Cathedral City", "state": "CA", "district_id": 5584, "district_name": "Palm Springs Unified", "total_students": "541 students"}, {"school_id": 147593, "name": "Aguilar Elementary School", "lat": 33.3696, "lng": -111.935, "start_date": 1469664000, "grade_low": "KG", "grade_high": "5", "city": "Tempe", "state": "AZ", "district_id": 4809, "district_name": "Tempe Elementary School District", "total_students": "500 children"}, {"school_id": 49988, "name": "Ahwahnee Middle", "lat": 36.8261, "lng": -119.769, "start_date": 1553558400, "grade_low": "7", "grade_high": "8", "city": "Fresno", "state": "CA", "district_id": 5205, "district_name": "Fresno USD", "total_students": "810 students"}, {"school_id": 23432, "name": "Aiken Elementary", "lat": 33.5277, "lng": -81.7654, "start_date": 1472169600, "grade_low": "PK", "grade_high": "5", "city": "Aiken", "state": "SC", "district_id": 763, "district_name": "Aiken 01", "total_students": "727 students"}, {"school_id": 23433, "name": "Aiken High", "lat": 33.5781, "lng": -81.714, "start_date": 1472169600, "grade_low": "9", "grade_high": "12", "city": "Aiken", "state": "SC", "district_id": 763, "district_name": "Aiken 01", "total_students": "1,345"}, {"school_id": 23435, "name": "Aiken Performing Arts Academy Charter", "lat": 33.5795, "lng": -81.7463, "start_date": 1472169600, "grade_low": "9", "grade_high": "12", "city": "Aiken", "state": "SC", "district_id": 763, "district_name": "Aiken 01", "total_students": "44 students"}, {"school_id": 21547, "name": "Aikin Elementary", "lat": 32.915, "lng": -96.7225, "start_date": 1472083200, "grade_low": "PK", "grade_high": "6", "city": "Dallas", "state": "TX", "district_id": 2091, "district_name": "Richardson ISD", "total_students": "713 students"}, {"school_id": 105126, "name": "Aim Academy at Fairmount", "lat": 40.8259, "lng": -81.3247, "start_date": 1537833600, "grade_low": "PK", "grade_high": "6", "city": "Canton", "state": "OH", "district_id": 14356, "district_name": "Canton City SD", "total_students": "408 students"}, {"school_id": 148234, "name": "Akin Elementary", "lat": 30.5623, "lng": -97.791, "start_date": 1421020800, "grade_low": "KG", "grade_high": "5", "city": "Leander", "state": "TX", "district_id": 1803, "district_name": "Leander ISD", "total_students": "845 students"}, {"school_id": 42142, "name": "Akin Elementary School", "lat": 33.0096, "lng": -96.5232, "start_date": 1429678800, "grade_low": "KG", "grade_high": "5", "city": "Wylie", "state": "TX", "district_id": 2395, "district_name": "Wylie ISD", "total_students": "468 students"}, {"school_id": 150912, "name": "AL Superintendents", "lat": 32.3784, "lng": -86.2973, "start_date": 1569283200, "grade_low": "ECE", "grade_high": "CE", "city": "Montgomery", "state": "AL", "district_id": 35450, "district_name": "Alabama State Department of Education", "total_students": "31,716 students"}, {"school_id": 150917, "name": "Alabama Business Community", "lat": 32.3784, "lng": -86.2973, "start_date": 1569283200, "grade_low": "ECE", "grade_high": "CE", "city": "Montgomery", "state": "AL", "district_id": 35450, "district_name": "Alabama State Department of Education", "total_students": " or  or "}, {"school_id": 150920, "name": "Alabama State Department of Education", "lat": 32.3784, "lng": -86.2973, "start_date": 1569283200, "grade_low": "ECE", "grade_high": "CE", "city": "Montgomery", "state": "AL", "district_id": 35450, "district_name": "Alabama State Department of Education", "total_students": ""}, {"school_id": 64817, "name": "Alafia Elementary School", "lat": 27.8883, "lng": -82.2481, "start_date": 1470700800, "grade_low": "PK", "grade_high": "5", "city": "Valrico", "state": "FL", "district_id": 7107, "district_name": "Hillsborough County PS", "total_students": "655 students"}, {"school_id": 98774, "name": "Alamance Elementary", "lat": 36.0172, "lng": -79.7078, "start_date": 1409616000, "grade_low": "PK", "grade_high": "5", "city": "Greensboro", "state": "NC", "district_id": 12953, "district_name": "Guilford County Schools", "total_students": "542 students"}, {"school_id": 102260, "name": "Alameda Elementary", "lat": 32.3212, "lng": -106.786, "start_date": 1567468800, "grade_low": "PK", "grade_high": "5", "city": "Las Cruces", "state": "NM", "district_id": 35438, "district_name": "Albuquerque Public Schools", "total_students": "415 students"}, {"school_id": 60313, "name": "Alameda International Jr./Sr. High School", "lat": 39.6938, "lng": -105.083, "start_date": 1554076800, "grade_low": "7", "grade_high": "12", "city": "Lakewood", "state": "CO", "district_id": 6399, "district_name": "Jeffco Public Schools", "total_students": "1,199 students"}, {"school_id": 55013, "name": "Alamitos Intermediate", "lat": 33.7833, "lng": -117.986, "start_date": 1520812800, "grade_low": "7", "grade_high": "8", "city": "Garden Grove", "state": "CA", "district_id": 5211, "district_name": "Garden Grove USD", "total_students": "722 students"}, {"school_id": 31834, "name": "Alamo Elementary", "lat": 31.8677, "lng": -102.371, "start_date": 1496206800, "grade_low": "PK", "grade_high": "5", "city": "Odessa", "state": "TX", "district_id": 1488, "district_name": "Ector County ISD", "total_students": "364 students"}, {"school_id": 53764, "name": "Alamo Elementary", "lat": 37.8672, "lng": -122.03, "start_date": 1402012800, "grade_low": "KG", "grade_high": "5", "city": "Alamo", "state": "CA", "district_id": 5739, "district_name": "San Ramon Valley Unified", "total_students": "359 students"}, {"school_id": 147916, "name": "Alamo Elementary School", "lat": 42.3781, "lng": -85.708, "start_date": 1485302400, "grade_low": "PK", "grade_high": "5", "city": "Kalamazoo", "state": "MI", "district_id": 10970, "district_name": "Otsego PS", "total_students": "277 students"}, {"school_id": 102092, "name": "Alamosa Elementary", "lat": 35.0714, "lng": -106.706, "start_date": 1567468800, "grade_low": "PK", "grade_high": "5", "city": "Albuquerque", "state": "NM", "district_id": 35438, "district_name": "Albuquerque Public Schools", "total_students": "518 students"}, {"school_id": 51230, "name": "Alamosa Park Elementary", "lat": 33.239, "lng": -117.282, "start_date": 1377734400, "grade_low": "KG", "grade_high": "5", "city": "Oceanside", "state": "CA", "district_id": 5926, "district_name": "Vista Unified", "total_students": "489 students"}, {"school_id": 107400, "name": "Albany Options School", "lat": 44.6239, "lng": -123.094, "start_date": 1444780800, "grade_low": "9", "grade_high": "12", "city": "Albany", "state": "OR", "district_id": 14966, "district_name": "Greater Albany Public SD 8J", "total_students": "70"}, {"school_id": 128396, "name": "Albemarle Road Elementary", "lat": 35.1969, "lng": -80.7294, "start_date": 1422576000, "grade_low": "KG", "grade_high": "5", "city": "Charlotte", "state": "NC", "district_id": 12902, "district_name": "Charlotte Mecklenburg Schools", "total_students": "885 students"}, {"school_id": 148836, "name": "Albert F. Biella Elementary School", "lat": 38.4498, "lng": -122.756, "start_date": 1533686400, "grade_low": "KG", "grade_high": "5", "city": "Santa Rosa", "state": "CA", "district_id": 5763, "district_name": "Santa Rosa City Schools", "total_students": "355 students"}, {"school_id": 149595, "name": "Albert Harris Elementary School", "lat": 36.6922, "lng": -79.8858, "start_date": 1545004800, "grade_low": "KG", "grade_high": "4", "city": "Martinsville", "state": "VA", "district_id": 2844, "district_name": "Martinsville City PS", "total_students": "437 students"}, {"school_id": 28920, "name": "Albert Hill Middle School", "lat": 37.5626, "lng": -77.4815, "start_date": 1510185600, "grade_low": "6", "grade_high": "8", "city": "Richmond", "state": "VA", "district_id": 2871, "district_name": "Richmond PS", "total_students": "537 students"}, {"school_id": 103011, "name": "Albert M Lowry High School", "lat": 40.9715, "lng": -117.708, "start_date": 1440979200, "grade_low": "9", "grade_high": "12", "city": "Winnemucca", "state": "NV", "district_id": 13818, "district_name": "Humboldt County School District", "total_students": "951 students"}, {"school_id": 149219, "name": "Albert Powell High School", "lat": 39.1619, "lng": -121.626, "start_date": 1548892800, "grade_low": "10", "grade_high": "12", "city": "Yuba City", "state": "CA", "district_id": 5985, "district_name": "Yuba City USD", "total_students": "129 students"}, {"school_id": 124806, "name": "Albertville Primary", "lat": 45.2298, "lng": -93.6527, "start_date": 1502755200, "grade_low": "PK", "grade_high": "KG", "city": "Albertville", "state": "MN", "district_id": 11654, "district_name": "St. Michael Albertville Schools", "total_students": "468 students"}, {"school_id": 71148, "name": "Albion Elementary School", "lat": 42.4116, "lng": -113.584, "start_date": 1461801600, "grade_low": "PK", "grade_high": "5", "city": "Albion", "state": "ID", "district_id": 7697, "district_name": "Cassia County Joint District", "total_students": "57 students"}, {"school_id": 109981, "name": "Albion Middle", "lat": 40.5868, "lng": -111.813, "start_date": 1434344400, "grade_low": "6", "grade_high": "8", "city": "Sandy", "state": "UT", "district_id": 34170, "district_name": "Canyons SD", "total_students": "946 students"}, {"school_id": 36269, "name": "Alcott Elementary", "lat": 47.6466, "lng": -122.038, "start_date": 1440374400, "grade_low": "KG", "grade_high": "5", "city": "Redmond", "state": "WA", "district_id": 3023, "district_name": "Lake Washington SD", "total_students": "676 students"}, {"school_id": 56268, "name": "Alcott Elementary", "lat": 34.0429, "lng": -117.741, "start_date": 1440374400, "grade_low": "KG", "grade_high": "6", "city": "Pomona", "state": "CA", "district_id": 5633, "district_name": "Pomona Unified School District", "total_students": "832 students"}, {"school_id": 49838, "name": "Alcott Elementary", "lat": 33.9541, "lng": -117.364, "start_date": 1448841600, "grade_low": "KG", "grade_high": "6", "city": "Riverside", "state": "CA", "district_id": 5674, "district_name": "Riverside Unified", "total_students": "761 students"}, {"school_id": 52537, "name": "Alcott Elementary", "lat": 32.8326, "lng": -117.221, "start_date": 1426118400, "grade_low": "KG", "grade_high": "5", "city": "San Diego", "state": "CA", "district_id": 5711, "district_name": "San Diego USD", "total_students": "195 students"}, {"school_id": 150827, "name": "Alcott Elementary Preschool", "lat": 32.8326, "lng": -117.221, "start_date": 1426118400, "grade_low": "Pre-K", "grade_high": "Pre-K", "city": "San Diego", "state": "CA", "district_id": 5711, "district_name": "San Diego USD", "total_students": "195 students"}, {"school_id": 104661, "name": "Aldai E. Stevenson", "lat": 41.4547, "lng": -81.551, "start_date": 1474329600, "grade_low": "PK", "grade_high": "8", "city": "Cleveland", "state": "OH", "district_id": 14404, "district_name": "Cleveland Metropolitan SD", "total_students": "461 students"}, {"school_id": 63162, "name": "Alden Road Exceptional Student Center", "lat": 30.3001, "lng": -81.513, "start_date": 1470700800, "grade_low": "6", "grade_high": "12", "city": "Jacksonville", "state": "FL", "district_id": 7089, "district_name": "Duval County Public Schools", "total_students": "190 students"}, {"school_id": 150044, "name": "Alder Creek Middle School", "lat": 39.3451, "lng": -120.177, "start_date": 1552435200, "grade_low": "6", "grade_high": "8", "city": "Truckee", "state": "CA", "district_id": 5864, "district_name": "Tahoe Truckee USD", "total_students": "537 students"}, {"school_id": 118975, "name": "Alder Creek Middle School", "lat": 45.4232, "lng": -122.594, "start_date": 1517184000, "grade_low": "6", "grade_high": "8", "city": "Milwaukie", "state": "OR", "district_id": 33792, "district_name": "North Clackamas SD", "total_students": "959 students"}, {"school_id": 148276, "name": "Alder Middle School", "lat": 34.117, "lng": -117.416, "start_date": 1512086400, "grade_low": "6", "grade_high": "8", "city": "Fontana", "state": "CA", "district_id": 5185, "district_name": "Fontana USD", "total_students": "1,182 students"}, {"school_id": 98791, "name": "Alderman Elementary", "lat": 36.0402, "lng": -79.868, "start_date": 1409616000, "grade_low": "PK", "grade_high": "5", "city": "Greensboro", "state": "NC", "district_id": 12953, "district_name": "Guilford County Schools", "total_students": "429 students"}, {"school_id": 64966, "name": "Alee Academy Charter School", "lat": 28.8754, "lng": -81.6682, "start_date": 1442966400, "grade_low": "9", "grade_high": "12", "city": "Eustis", "state": "FL", "district_id": 7113, "district_name": "Lake County Schools", "total_students": "257 students"}, {"school_id": 55477, "name": "Alessandro High", "lat": 33.751, "lng": -116.963, "start_date": 1465794000, "grade_low": "9", "grade_high": "12", "city": "Hemet", "state": "CA", "district_id": 5262, "district_name": "Hemet USD", "total_students": "329 students"}, {"school_id": 57202, "name": "Alessandro School", "lat": 33.9269, "lng": -117.258, "start_date": 1404172800, "grade_low": "KG", "grade_high": "12", "city": "Moreno Valley", "state": "CA", "district_id": 5496, "district_name": "Moreno Valley Unified", "total_students": "50 students"}, {"school_id": 147685, "name": "Alexander Doniphan Elementary", "lat": 39.2276, "lng": -94.4537, "start_date": 1472601600, "grade_low": "KG", "grade_high": "5", "city": "Liberty", "state": "MO", "district_id": 11988, "district_name": "Liberty PS", "total_students": "343 students"}, {"school_id": 28086, "name": "Alexander Elementary", "lat": 33.2198, "lng": -97.1052, "start_date": 1483488000, "grade_low": "PK", "grade_high": "5", "city": "Denton", "state": "TX", "district_id": 1452, "district_name": "Denton Isd", "total_students": "566 students"}, {"school_id": 148011, "name": "Alexander Elementary", "lat": 41.6221, "lng": -91.513, "start_date": 1488434400, "grade_low": "PK", "grade_high": "6", "city": "Iowa City", "state": "IA", "district_id": 7473, "district_name": "Iowa City Community SD", "total_students": "458 students"}, {"school_id": 64130, "name": "Alexander Elementary School", "lat": 27.998, "lng": -82.5145, "start_date": 1470700800, "grade_low": "PK", "grade_high": "5", "city": "Tampa", "state": "FL", "district_id": 7107, "district_name": "Hillsborough County PS", "total_students": "601 students"}, {"school_id": 98090, "name": "Alexander Graham Middle", "lat": 35.1668, "lng": -80.8329, "start_date": 1422576000, "grade_low": "6", "grade_high": "8", "city": "Charlotte", "state": "NC", "district_id": 12902, "district_name": "Charlotte Mecklenburg Schools", "total_students": "1,420 students"}, {"school_id": 148154, "name": "Alexander Junior High", "lat": 31.5702, "lng": -90.4334, "start_date": 1525132800, "grade_low": "7", "grade_high": "8", "city": "Brookhaven", "state": "MS", "district_id": 12290, "district_name": "Brookhaven School Dist", "total_students": "418 students"}, {"school_id": 90860, "name": "Alexandria Area High School", "lat": 45.8766, "lng": -95.3732, "start_date": 1558483200, "grade_low": "9", "grade_high": "12", "city": "Alexandria", "state": "MN", "district_id": 11206, "district_name": "Alexandria Public School District", "total_students": "1,280 students"}, {"school_id": 104675, "name": "Alfred A. Benesch", "lat": 41.4937, "lng": -81.6524, "start_date": 1474329600, "grade_low": "KG", "grade_high": "8", "city": "Cleveland", "state": "OH", "district_id": 14404, "district_name": "Cleveland Metropolitan SD", "total_students": "271 students"}, {"school_id": 63163, "name": "Alfred DuPont Middle School", "lat": 30.2506, "lng": -81.632, "start_date": 1470700800, "grade_low": "6", "grade_high": "8", "city": "Jacksonville", "state": "FL", "district_id": 7089, "district_name": "Duval County Public Schools", "total_students": "880 students"}, {"school_id": 107733, "name": "Alfred Rush Academy", "lat": 34.23, "lng": -79.7302, "start_date": 1417737600, "grade_low": "PK", "grade_high": "PK", "city": "Quinby", "state": "SC", "district_id": 804, "district_name": "Florence 01", "total_students": "191 students"}, {"school_id": 36775, "name": "Algonkian Elementary School", "lat": 39.0568, "lng": -77.4099, "start_date": 1476230400, "grade_low": "PK", "grade_high": "5", "city": "Sterling", "state": "VA", "district_id": 2837, "district_name": "Loudoun County PS", "total_students": "462 students"}, {"school_id": 121898, "name": "Algood Elementary", "lat": 36.1772, "lng": -85.4529, "start_date": 1441065600, "grade_low": "PK", "grade_high": "4", "city": "Cookeville", "state": "TN", "district_id": 34056, "district_name": "Putnam County School System", "total_students": "567 students"}, {"school_id": 121896, "name": "Algood Middle School", "lat": 36.1759, "lng": -85.4531, "start_date": 1441065600, "grade_low": "5", "grade_high": "8", "city": "Cookeville", "state": "TN", "district_id": 34056, "district_name": "Putnam County School System", "total_students": "767 students"}, {"school_id": 149172, "name": "Alhambra High School", "lat": 33.5083, "lng": -112.141, "start_date": 1540339200, "grade_low": "9", "grade_high": "12", "city": "Phoenix", "state": "AZ", "district_id": 4698, "district_name": "Phoenix Union HSD", "total_students": "2,648"}, {"school_id": 150310, "name": "Alhambra Preschool Programs", "lat": 33.533, "lng": -112.155, "start_date": 1553644800, "grade_low": "PK", "grade_high": "PK", "city": "Glendale", "state": "AZ", "district_id": 4237, "district_name": "Alhambra ESD", "total_students": "14,000 students"}, {"school_id": 149896, "name": "Alhambra Traditional School", "lat": 33.5216, "lng": -112.116, "start_date": 1553644800, "grade_low": "KG", "grade_high": "8", "city": "Phoenix", "state": "AZ", "district_id": 4237, "district_name": "Alhambra ESD", "total_students": "772 students"}, {"school_id": 66418, "name": "Alice B. Landrum Middle School", "lat": 30.1648, "lng": -81.3904, "start_date": 1470700800, "grade_low": "6", "grade_high": "8", "city": "Ponte Vedra Beach", "state": "FL", "district_id": 7136, "district_name": "St. Johns County SD", "total_students": "1,230 students"}, {"school_id": 56002, "name": "Alice C. Stelle Middle School", "lat": 34.1423, "lng": -118.613, "start_date": 1438732800, "grade_low": "6", "grade_high": "8", "city": "Calabasas", "state": "CA", "district_id": 5361, "district_name": "Las Virgenes Unified School District", "total_students": "830 students"}, {"school_id": 148328, "name": "Alice Ellington", "lat": 34.1036, "lng": -117.921, "start_date": 1506643200, "grade_low": "KG", "grade_high": "8", "city": "Covina", "state": "CA", "district_id": 4925, "district_name": "Azusa Unified", "total_students": "471 students"}, {"school_id": 149276, "name": "Alice Shaw Elementary", "lat": 34.8895, "lng": -120.426, "start_date": 1539129600, "grade_low": "KG", "grade_high": "6", "city": "Santa Maria", "state": "CA", "district_id": 5565, "district_name": "Orcutt Union SD", "total_students": "577 students"}, {"school_id": 27534, "name": "Alicia R Chacon International School", "lat": 31.705, "lng": -106.349, "start_date": 1538092800, "grade_low": "KG", "grade_high": "8", "city": "El Paso", "state": "TX", "district_id": 2400, "district_name": "Ysleta ISD", "total_students": "792"}, {"school_id": 63164, "name": "Alimacani Elementary School", "lat": 30.3141, "lng": -81.4467, "start_date": 1470700800, "grade_low": "PK", "grade_high": "5", "city": "Jacksonville", "state": "FL", "district_id": 7089, "district_name": "Duval County Public Schools", "total_students": "908 students or "}, {"school_id": 147613, "name": "Alisal Elementary", "lat": 37.6723, "lng": -121.871, "start_date": 1472187600, "grade_low": "KG", "grade_high": "5", "city": "Pleasanton", "state": "CA", "district_id": 5625, "district_name": "Pleasanton USD", "total_students": "644 students"}, {"school_id": 148563, "name": "Alki Middle", "lat": 45.7235, "lng": -122.689, "start_date": 1517270400, "grade_low": "6", "grade_high": "8", "city": "Vancouver", "state": "WA", "district_id": 3175, "district_name": "Vancouver Public Schools", "total_students": "643 students"}, {"school_id": 151707, "name": "All District Staff", "lat": 26.0756, "lng": -97.4843, "start_date": 0, "grade_low": null, "grade_high": null, "city": "Los Fresnos", "state": "TX", "district_id": 35511, "district_name": "Los Fresnos CISD", "total_students": "10,739"}, {"school_id": 148397, "name": "All Teachers", "lat": 33.9741, "lng": -117.374, "start_date": 1448841600, "grade_low": "ECE", "grade_high": "CE", "city": "Riverside", "state": "CA", "district_id": 5674, "district_name": "Riverside Unified", "total_students": "44,700 or  or "}, {"school_id": 55131, "name": "Allan F. Daily High School", "lat": 34.1486, "lng": -118.251, "start_date": 1517875200, "grade_low": "9", "grade_high": "12", "city": "Glendale", "state": "CA", "district_id": 5220, "district_name": "Glendale USD", "total_students": "163 students"}, {"school_id": 148199, "name": "Allan Orrenmaa Elementary", "lat": 33.9338, "lng": -117.48, "start_date": 1502928000, "grade_low": "KG", "grade_high": "5", "city": "Riverside", "state": "CA", "district_id": 4901, "district_name": "Alvord USD", "total_students": "557 students"}, {"school_id": 148463, "name": "Allderdice High School", "lat": 40.4296, "lng": -79.9194, "start_date": 1518480000, "grade_low": "9", "grade_high": "12", "city": "Pittsburgh", "state": "PA", "district_id": 489, "district_name": "Pittsburgh Public Schools", "total_students": "1,494"}, {"school_id": 87346, "name": "Allegan High School", "lat": 42.5229, "lng": -85.8426, "start_date": 1537228800, "grade_low": "8", "grade_high": "12", "city": "Allegan", "state": "MI", "district_id": 10395, "district_name": "Allegan PS", "total_students": "705"}, {"school_id": 84487, "name": "Allegany High", "lat": 39.6566, "lng": -78.7763, "start_date": 1508803200, "grade_low": "9", "grade_high": "12", "city": "Cumberland", "state": "MD", "district_id": 10109, "district_name": "Allegany County PS", "total_students": "721 students"}, {"school_id": 18072, "name": "Allegheny 6-8", "lat": 40.4532, "lng": -80.0086, "start_date": 1518480000, "grade_low": "6", "grade_high": "8", "city": "Pittsburgh", "state": "PA", "district_id": 489, "district_name": "Pittsburgh Public Schools", "total_students": "215 students"}, {"school_id": 18071, "name": "Allegheny K-5", "lat": 40.4534, "lng": -80.0082, "start_date": 1518480000, "grade_low": "PK", "grade_high": "5", "city": "Pittsburgh", "state": "PA", "district_id": 489, "district_name": "Pittsburgh Public Schools", "total_students": "614 students or "}, {"school_id": 52426, "name": "Allen (Ella B.) Elementary", "lat": 32.6564, "lng": -117.034, "start_date": 1376870400, "grade_low": "KG", "grade_high": "6", "city": "Bonita", "state": "CA", "district_id": 5058, "district_name": "Chula Vista ESD", "total_students": "354 students"}, {"school_id": 66421, "name": "Allen D. Nease High School", "lat": 30.0817, "lng": -81.4485, "start_date": 1470700800, "grade_low": "9", "grade_high": "12", "city": "Ponte Vedra Beach", "state": "FL", "district_id": 7136, "district_name": "St. Johns County SD", "total_students": "2,628"}, {"school_id": 54888, "name": "Allen Elementary", "lat": 33.7279, "lng": -117.962, "start_date": 1520812800, "grade_low": "KG", "grade_high": "6", "city": "Fountain Valley", "state": "CA", "district_id": 5211, "district_name": "Garden Grove USD", "total_students": "722 students"}, {"school_id": 148943, "name": "Allen Elementary", "lat": 37.6245, "lng": -122.416, "start_date": 1540944000, "grade_low": "KG", "grade_high": "5", "city": "San Bruno", "state": "CA", "district_id": 5707, "district_name": "San Bruno Park SD", "total_students": "409 students"}, {"school_id": 68764, "name": "Allen Elementary School", "lat": 32.5144, "lng": -84.9601, "start_date": 1424995200, "grade_low": "KG", "grade_high": "5", "city": "Columbus", "state": "GA", "district_id": 7253, "district_name": "Muscogee County", "total_students": "458 students"}, {"school_id": 149054, "name": "Allen Elementary School", "lat": 40.7846, "lng": -81.3647, "start_date": 1537833600, "grade_low": "PK", "grade_high": "2", "city": "Canton", "state": "OH", "district_id": 14356, "district_name": "Canton City SD", "total_students": "230 students"}, {"school_id": 147680, "name": "Allen High School", "lat": 33.1094, "lng": -96.6608, "start_date": 1476075600, "grade_low": "9", "grade_high": "12", "city": "Allen", "state": "TX", "district_id": 1190, "district_name": "Allen ISD", "total_students": "5,163"}, {"school_id": 98850, "name": "Allen Jay Elementary", "lat": 35.9323, "lng": -79.9555, "start_date": 1409616000, "grade_low": "PK", "grade_high": "5", "city": "High Point", "state": "NC", "district_id": 12953, "district_name": "Guilford County Schools", "total_students": "474 students"}, {"school_id": 98851, "name": "Allen Jay Middle", "lat": 35.9254, "lng": -79.9605, "start_date": 1409616000, "grade_low": "5", "grade_high": "7", "city": "High Point", "state": "NC", "district_id": 12953, "district_name": "Guilford County Schools", "total_students": "407 students"}, {"school_id": 98775, "name": "Allen Middle", "lat": 36.0103, "lng": -79.823, "start_date": 1409616000, "grade_low": "6", "grade_high": "8", "city": "Greensboro", "state": "NC", "district_id": 12953, "district_name": "Guilford County Schools", "total_students": "742 students"}, {"school_id": 65024, "name": "Allen Park Elementary School", "lat": 26.616, "lng": -81.877, "start_date": 1545091200, "grade_low": "PK", "grade_high": "5", "city": "Fort Myers", "state": "FL", "district_id": 7114, "district_name": "School District of Lee County", "total_students": "998 students"}, {"school_id": 119114, "name": "Allen Road Elementary", "lat": 43.1328, "lng": -76.157, "start_date": 1543536000, "grade_low": "KG", "grade_high": "4", "city": "North Syracuse", "state": "NY", "district_id": 32438, "district_name": "North Syracuse Central SD", "total_students": "403 students"}, {"school_id": 98091, "name": "Allenbrook Elementary", "lat": 35.2615, "lng": -80.9148, "start_date": 1422576000, "grade_low": "KG", "grade_high": "5", "city": "Charlotte", "state": "NC", "district_id": 12902, "district_name": "Charlotte Mecklenburg Schools", "total_students": "282 students"}, {"school_id": 59792, "name": "ALLENDALE ELEMENTARY SCHOOL", "lat": 39.8048, "lng": -105.118, "start_date": 1554076800, "grade_low": "PK", "grade_high": "5", "city": "Arvada", "state": "CO", "district_id": 6399, "district_name": "Jeffco Public Schools", "total_students": "188 students"}, {"school_id": 26446, "name": "Alliene Mullendore Elementary", "lat": 32.8254, "lng": -97.2359, "start_date": 1481587200, "grade_low": "PK", "grade_high": "5", "city": "North Richland Hills", "state": "TX", "district_id": 1260, "district_name": "Birdville ISD", "total_students": "368 students"}, {"school_id": 56269, "name": "Allison Elementary", "lat": 34.0781, "lng": -117.732, "start_date": 1440374400, "grade_low": "KG", "grade_high": "6", "city": "Pomona", "state": "CA", "district_id": 5633, "district_name": "Pomona Unified School District", "total_students": "307 students"}, {"school_id": 53049, "name": "Almeria Middle", "lat": 34.1134, "lng": -117.46, "start_date": 1512086400, "grade_low": "6", "grade_high": "8", "city": "Fontana", "state": "CA", "district_id": 5185, "district_name": "Fontana USD", "total_students": "820 students"}, {"school_id": 104664, "name": "Almira", "lat": 41.4617, "lng": -81.7517, "start_date": 1474329600, "grade_low": "PK", "grade_high": "8", "city": "Cleveland", "state": "OH", "district_id": 14404, "district_name": "Cleveland Metropolitan SD", "total_students": "531"}, {"school_id": 53999, "name": "Almond Elementary", "lat": 37.3838, "lng": -122.101, "start_date": 1414627200, "grade_low": "KG", "grade_high": "6", "city": "Los Altos", "state": "CA", "district_id": 5401, "district_name": "Los Altos School District", "total_students": "488 students"}, {"school_id": 147850, "name": "Aloe Elementary School", "lat": 28.7684, "lng": -97.074, "start_date": 1500508800, "grade_low": "PK", "grade_high": "5", "city": "Victoria", "state": "TX", "district_id": 2327, "district_name": "Victoria ISD", "total_students": "445 students"}, {"school_id": 48945, "name": "Aloha Elementary", "lat": 33.8359, "lng": -118.084, "start_date": 1528416000, "grade_low": "KG", "grade_high": "6", "city": "Lakewood", "state": "CA", "district_id": 4879, "district_name": "ABC USD", "total_students": "356 students"}, {"school_id": 64131, "name": "Alonso High School", "lat": 28.0223, "lng": -82.6044, "start_date": 1470700800, "grade_low": "9", "grade_high": "12", "city": "Tampa", "state": "FL", "district_id": 7107, "district_name": "Hillsborough County PS", "total_students": "2,582"}, {"school_id": 92839, "name": "ALP Knights Academy", "lat": 45.2112, "lng": -93.6664, "start_date": 1502755200, "grade_low": "10", "grade_high": "12", "city": "St Michael", "state": "MN", "district_id": 11654, "district_name": "St. Michael Albertville Schools", "total_students": "30 students"}, {"school_id": 25302, "name": "Alpac Elementary School", "lat": 47.2711, "lng": -122.249, "start_date": 1442811600, "grade_low": "KG", "grade_high": "5", "city": "Pacific", "state": "WA", "district_id": 2907, "district_name": "Auburn SD", "total_students": "643 students"}, {"school_id": 151089, "name": "ALPHA Academy", "lat": 30.2036, "lng": -95.7568, "start_date": 1574121600, "grade_low": "9", "grade_high": "12", "city": "Magnolia", "state": "TX", "district_id": 35460, "district_name": "Magnolia ISD", "total_students": "100 students"}, {"school_id": 55183, "name": "Alpha Elementary", "lat": 36.9427, "lng": -120.067, "start_date": 1431561600, "grade_low": "KG", "grade_high": "6", "city": "Madera", "state": "CA", "district_id": 5420, "district_name": "Madera Unified", "total_students": "712 students"}, {"school_id": 68246, "name": "Alpharetta Elementary School", "lat": 34.0818, "lng": -84.3016, "start_date": 1414108800, "grade_low": "PK", "grade_high": "5", "city": "Alpharetta", "state": "GA", "district_id": 7212, "district_name": "Fulton County", "total_students": "567 students"}, {"school_id": 68247, "name": "Alpharetta High School", "lat": 34.0758, "lng": -84.2551, "start_date": 1414108800, "grade_low": "9", "grade_high": "12", "city": "Alpharetta", "state": "GA", "district_id": 7212, "district_name": "Fulton County", "total_students": "2,233"}, {"school_id": 50346, "name": "Alpine Elementary", "lat": 34.5207, "lng": -117.982, "start_date": 1550188800, "grade_low": "KG", "grade_high": "8", "city": "Littlerock", "state": "CA", "district_id": 5311, "district_name": "Keppel Union ESD", "total_students": "430 students"}, {"school_id": 104453, "name": "Alpine Elementary School", "lat": 40.0944, "lng": -82.9739, "start_date": 1502755200, "grade_low": "KG", "grade_high": "5", "city": "Columbus", "state": "OH", "district_id": 14416, "district_name": "Columbus City Schools", "total_students": "355 students"}, {"school_id": 55884, "name": "Alta Elementary", "lat": 36.6109, "lng": -119.399, "start_date": 1528761600, "grade_low": "KG", "grade_high": "5", "city": "Reedley", "state": "CA", "district_id": 5321, "district_name": "Kings Canyon Unified School District", "total_students": "376 students"}, {"school_id": 57344, "name": "Alta Heights Elementary", "lat": 38.3028, "lng": -122.273, "start_date": 1398297600, "grade_low": "KG", "grade_high": "5", "city": "Napa", "state": "CA", "district_id": 5518, "district_name": "Napa Valley Unified", "total_students": "295 students"}, {"school_id": 109975, "name": "Alta High", "lat": 40.5501, "lng": -111.861, "start_date": 1434344400, "grade_low": "8", "grade_high": "12", "city": "Sandy", "state": "UT", "district_id": 34170, "district_name": "Canyons SD", "total_students": "2,137"}, {"school_id": 150591, "name": "Alta K-6 Elementary School", "lat": 43.7544, "lng": -111.037, "start_date": 1568073600, "grade_low": "KG", "grade_high": "6", "city": "Alta", "state": "WY", "district_id": 3742, "district_name": "Teton County School District", "total_students": "49 students"}, {"school_id": 149489, "name": "Alta Loma Elementary", "lat": 31.4619, "lng": -100.483, "start_date": 1551312000, "grade_low": "PK", "grade_high": "5", "city": "San Angelo", "state": "TX", "district_id": 2139, "district_name": "San Angelo ISD", "total_students": "324 students"}, {"school_id": 148426, "name": "Alta Loma Middle", "lat": 37.661, "lng": -122.45, "start_date": 1516752000, "grade_low": "6", "grade_high": "8", "city": "South San Francisco", "state": "CA", "district_id": 5831, "district_name": "South San Francisco USD", "total_students": "700 students"}, {"school_id": 56980, "name": "Alta Murrieta Elementary", "lat": 33.5662, "lng": -117.169, "start_date": 1469491200, "grade_low": "KG", "grade_high": "5", "city": "Murrieta", "state": "CA", "district_id": 5515, "district_name": "Murrieta Valley Unified School District", "total_students": "876 students"}, {"school_id": 109943, "name": "Alta View Elementary School", "lat": 40.5636, "lng": -111.865, "start_date": 1434344400, "grade_low": "KG", "grade_high": "5", "city": "Sandy", "state": "UT", "district_id": 34170, "district_name": "Canyons SD", "total_students": "598 students"}, {"school_id": 52468, "name": "Alta Vista Academy", "lat": 32.6188, "lng": -117.025, "start_date": 1442880000, "grade_low": "7", "grade_high": "12", "city": "Chula Vista", "state": "CA", "district_id": 5860, "district_name": "Sweetwater Union High School District", "total_students": "24 students"}, {"school_id": 47376, "name": "Alta Vista Elementary School", "lat": 33.5648, "lng": -112.127, "start_date": 1536105600, "grade_low": "KG", "grade_high": "6", "city": "Phoenix", "state": "AZ", "district_id": 4850, "district_name": "Washington ESD", "total_students": "701 students"}, {"school_id": 55801, "name": "Alta Vista High", "lat": 33.2226, "lng": -117.219, "start_date": 1377734400, "grade_low": "9", "grade_high": "12", "city": "Vista", "state": "CA", "district_id": 5926, "district_name": "Vista Unified", "total_students": "82 students"}, {"school_id": 56311, "name": "Altadena Elementary", "lat": 34.1849, "lng": -118.135, "start_date": 1410912000, "grade_low": "KG", "grade_high": "5", "city": "Altadena", "state": "CA", "district_id": 5596, "district_name": "Pasadena Unified", "total_students": "247 students"}, {"school_id": 56074, "name": "Altamont Creek Elementary", "lat": 37.7227, "lng": -121.719, "start_date": 1418083200, "grade_low": "KG", "grade_high": "5", "city": "Livermore", "state": "CA", "district_id": 5389, "district_name": "Livermore Valley Joint Unified", "total_students": "585 students"}, {"school_id": 109977, "name": "Altara Elementary School", "lat": 40.5508, "lng": -111.869, "start_date": 1434344400, "grade_low": "KG", "grade_high": "5", "city": "Sandy", "state": "UT", "district_id": 34170, "district_name": "Canyons SD", "total_students": "482 students"}, {"school_id": 24959, "name": "Alternative", "lat": 32.8632, "lng": -97.4076, "start_date": 1398124800, "grade_low": "7", "grade_high": "12", "city": "Fort Worth", "state": "TX", "district_id": 1478, "district_name": "Eagle Mountain Saginaw ISD", "total_students": " or  or  or "}, {"school_id": 65399, "name": "Alternative Education", "lat": 24.5862, "lng": -81.7478, "start_date": 1553126400, "grade_low": "8", "grade_high": "12", "city": "Key West", "state": "FL", "district_id": 7122, "district_name": "Monroe County SD (FL)", "total_students": "1,120 students"}, {"school_id": 148869, "name": "Alternative High School", "lat": 42.5229, "lng": -85.8426, "start_date": 1537228800, "grade_low": "8", "grade_high": "12", "city": "Allegan", "state": "MI", "district_id": 10395, "district_name": "Allegan PS", "total_students": "171 students"}, {"school_id": 147976, "name": "Alternative Learning Center", "lat": 34.1286, "lng": -117.217, "start_date": 1502150400, "grade_low": "1", "grade_high": "12", "city": "Highland", "state": "CA", "district_id": 5704, "district_name": "San Bernardino City USD", "total_students": "37 students"}, {"school_id": 58633, "name": "Altimira Middle", "lat": 38.3119, "lng": -122.497, "start_date": 1476835200, "grade_low": "6", "grade_high": "8", "city": "Sonoma", "state": "CA", "district_id": 5823, "district_name": "Sonoma Valley USD", "total_students": "468 students"}, {"school_id": 103182, "name": "Altmar-Parish-Williamstown Elementary", "lat": 43.4435, "lng": -76.0533, "start_date": 1547164800, "grade_low": "KG", "grade_high": "4", "city": "Parish", "state": "NY", "district_id": 13840, "district_name": "Altmar Parish-Williamstown Central SD", "total_students": "609 students"}, {"school_id": 103180, "name": "Altmar-Parish-Williamstown Middle/High", "lat": 43.4435, "lng": -76.0533, "start_date": 1547164800, "grade_low": "7", "grade_high": "12", "city": "Parish", "state": "NY", "district_id": 13840, "district_name": "Altmar Parish-Williamstown Central SD", "total_students": "585 students"}, {"school_id": 150593, "name": "Alton Elementary", "lat": 30.1582, "lng": -96.3956, "start_date": 1566518400, "grade_low": "PK", "grade_high": "4", "city": "Brenham", "state": "TX", "district_id": 1292, "district_name": "Brenham Isd", "total_students": "500 students"}, {"school_id": 124427, "name": "Alton Hall Elementary School", "lat": 39.9293, "lng": -83.1769, "start_date": 1542240000, "grade_low": "KG", "grade_high": "4", "city": "Galloway", "state": "OH", "district_id": 33107, "district_name": "South-Western City School District", "total_students": "538 students"}, {"school_id": 64986, "name": "Altoona School", "lat": 28.97, "lng": -81.6471, "start_date": 1442966400, "grade_low": "KG", "grade_high": "5", "city": "Altoona", "state": "FL", "district_id": 7113, "district_name": "Lake County Schools", "total_students": "275 students"}, {"school_id": 148964, "name": "Altura Elementary", "lat": 39.743, "lng": -104.814, "start_date": 1536192000, "grade_low": "PK", "grade_high": "5", "city": "Aurora", "state": "CO", "district_id": 30669, "district_name": "Aurora Public Schools", "total_students": "493 students"}, {"school_id": 70987, "name": "Alturas Elementary School", "lat": 43.4928, "lng": -114.276, "start_date": 1412121600, "grade_low": "PK", "grade_high": "5", "city": "Hailey", "state": "ID", "district_id": 7685, "district_name": "Blaine County SD", "total_students": "411 students"}, {"school_id": 57404, "name": "Alvarado Elementary", "lat": 37.5951, "lng": -122.076, "start_date": 1415750400, "grade_low": "KG", "grade_high": "5", "city": "Union City", "state": "CA", "district_id": 5525, "district_name": "New Haven Unified", "total_students": "726 students"}, {"school_id": 102096, "name": "Alvarado Elementary", "lat": 35.1513, "lng": -106.654, "start_date": 1567468800, "grade_low": "KG", "grade_high": "5", "city": "Albuquerque", "state": "NM", "district_id": 35438, "district_name": "Albuquerque Public Schools", "total_students": "296 students"}, {"school_id": 58185, "name": "Alvarado Intermediate School", "lat": 33.9835, "lng": -117.895, "start_date": 1459728000, "grade_low": "7", "grade_high": "8", "city": "Rowland Heights", "state": "CA", "district_id": 5690, "district_name": "Rowland Unified School District", "total_students": "737 students"}, {"school_id": 49788, "name": "Alvord Alternative Continuation High", "lat": 33.9338, "lng": -117.48, "start_date": 1502928000, "grade_low": "9", "grade_high": "12", "city": "Riverside", "state": "CA", "district_id": 4901, "district_name": "Alvord USD", "total_students": "163 students"}, {"school_id": 148233, "name": "Alyce Norman Education Center", "lat": 38.5964, "lng": -121.531, "start_date": 1502841600, "grade_low": "ECE", "grade_high": "CE", "city": "West Sacramento", "state": "CA", "district_id": 30663, "district_name": "Washington USD (West Sacramento)", "total_students": "301 students"}, {"school_id": 57846, "name": "Amador Valley High", "lat": 37.6679, "lng": -121.874, "start_date": 1472187600, "grade_low": "9", "grade_high": "12", "city": "Pleasanton", "state": "CA", "district_id": 5625, "district_name": "Pleasanton USD", "total_students": "2,713"}, {"school_id": 147620, "name": "Amana Charter Elementary", "lat": 34.0691, "lng": -84.3025, "start_date": 1414108800, "grade_low": "KG", "grade_high": "5", "city": "Alpharetta", "state": "GA", "district_id": 7212, "district_name": "Fulton County", "total_students": "694 students"}, {"school_id": 147621, "name": "Amana Charter Middle", "lat": 34.0691, "lng": -84.3025, "start_date": 1414108800, "grade_low": "6", "grade_high": "8", "city": "Alpharetta", "state": "GA", "district_id": 7212, "district_name": "Fulton County", "total_students": "694 students"}, {"school_id": 115872, "name": "Amanda Elementary School", "lat": 39.479, "lng": -84.408, "start_date": 1569801600, "grade_low": "KG", "grade_high": "5", "city": "Middletown", "state": "OH", "district_id": 35445, "district_name": "Middletown City", "total_students": "454 students"}, {"school_id": 113491, "name": "Amargosa Creek Middle School", "lat": 34.6885, "lng": -118.18, "start_date": 1548374400, "grade_low": "6", "grade_high": "8", "city": "Lancaster", "state": "CA", "district_id": 5358, "district_name": "Lancaster SD", "total_students": "958 students"}, {"school_id": 23927, "name": "Amarillo Area Center for Advanced Learning", "lat": 35.2266, "lng": -101.88, "start_date": 1420502400, "grade_low": "9", "grade_high": "12", "city": "Amarillo", "state": "TX", "district_id": 1197, "district_name": "Amarillo ISD", "total_students": "18 students"}, {"school_id": 23928, "name": "Amarillo High School", "lat": 35.1662, "lng": -101.905, "start_date": 1420502400, "grade_low": "9", "grade_high": "12", "city": "Amarillo", "state": "TX", "district_id": 1197, "district_name": "Amarillo ISD", "total_students": "2,140"}, {"school_id": 67501, "name": "Ambrose Elementary School", "lat": 31.5962, "lng": -83.0072, "start_date": 1440460800, "grade_low": "PK", "grade_high": "5", "city": "Ambrose", "state": "GA", "district_id": 30780, "district_name": "Coffee County School System", "total_students": "421 students"}, {"school_id": 52897, "name": "Amelia Earhart Elementary", "lat": 33.7207, "lng": -116.277, "start_date": 1476403200, "grade_low": "KG", "grade_high": "5", "city": "Indio", "state": "CA", "district_id": 5119, "district_name": "Desert Sands USD", "total_students": "857 students"}, {"school_id": 28921, "name": "Amelia Street School", "lat": 37.5386, "lng": -77.4703, "start_date": 1510185600, "grade_low": "PK", "grade_high": "12", "city": "Richmond", "state": "VA", "district_id": 2871, "district_name": "Richmond PS", "total_students": "37 students"}, {"school_id": 107574, "name": "American Canyon High", "lat": 38.1674, "lng": -122.239, "start_date": 1398297600, "grade_low": "9", "grade_high": "12", "city": "Amer Cyn", "state": "CA", "district_id": 5518, "district_name": "Napa Valley Unified", "total_students": "1,572"}, {"school_id": 57375, "name": "American Canyon Middle", "lat": 38.17, "lng": -122.268, "start_date": 1398297600, "grade_low": "6", "grade_high": "8", "city": "Amer Cyn", "state": "CA", "district_id": 5518, "district_name": "Napa Valley Unified", "total_students": "1,041 students or School Overview"}, {"school_id": 51561, "name": "American High", "lat": 37.5645, "lng": -122.016, "start_date": 1475452800, "grade_low": "9", "grade_high": "12", "city": "Fremont", "state": "CA", "district_id": 5199, "district_name": "Fremont Unified School District", "total_students": "2,448"}, {"school_id": 63228, "name": "AMI Kids of Jacksonville", "lat": 30.2881, "lng": -81.4638, "start_date": 1470700800, "grade_low": "6", "grade_high": "12", "city": "Jacksonville", "state": "FL", "district_id": 7089, "district_name": "Duval County Public Schools", "total_students": "42 students"}, {"school_id": 149267, "name": "Amistad Elementary", "lat": 46.2071, "lng": -119.134, "start_date": 1540252800, "grade_low": "PK", "grade_high": "5", "city": "Kennewick", "state": "WA", "district_id": 3011, "district_name": "Kennewick School District", "total_students": "771 students"}, {"school_id": 52898, "name": "Amistad High", "lat": 33.7255, "lng": -116.21, "start_date": 1476403200, "grade_low": "9", "grade_high": "12", "city": "Indio", "state": "CA", "district_id": 5119, "district_name": "Desert Sands USD", "total_students": "211 students"}, {"school_id": 148254, "name": "Amphitheater High School", "lat": 32.269, "lng": -110.975, "start_date": 1511827200, "grade_low": "9", "grade_high": "12", "city": "Tucson", "state": "AZ", "district_id": 4256, "district_name": "Amphitheater PS", "total_students": "1,206"}, {"school_id": 46677, "name": "Amphitheater Middle School", "lat": 32.2724, "lng": -110.967, "start_date": 1511827200, "grade_low": "6", "grade_high": "8", "city": "Tucson", "state": "AZ", "district_id": 4256, "district_name": "Amphitheater PS", "total_students": "780 students"}, {"school_id": 47324, "name": "Amy L. Houston Academy", "lat": 33.3807, "lng": -112.058, "start_date": 1447113600, "grade_low": "PK", "grade_high": "8", "city": "Phoenix", "state": "AZ", "district_id": 4737, "district_name": "Roosevelt School District", "total_students": "98 students"}, {"school_id": 148128, "name": "Anasazi Elementary School", "lat": 33.596, "lng": -111.812, "start_date": 1495152000, "grade_low": "PK", "grade_high": "5", "city": "Scottsdale", "state": "AZ", "district_id": 4764, "district_name": "Scottsdale USD", "total_students": "475 students"}, {"school_id": 47671, "name": "Andersen Elementary", "lat": 33.3268, "lng": -111.873, "start_date": 1490659200, "grade_low": "PK", "grade_high": "6", "city": "Chandler", "state": "AZ", "district_id": 4345, "district_name": "Chandler USD", "total_students": "588 students"}, {"school_id": 92852, "name": "Andersen Elementary", "lat": 45.019, "lng": -92.7805, "start_date": 1490659200, "grade_low": "KG", "grade_high": "6", "city": "Bayport", "state": "MN", "district_id": 11660, "district_name": "Stillwater Area Public Schools", "total_students": "343 students"}, {"school_id": 126130, "name": "Andersen Elementary", "lat": 36.0404, "lng": -95.8414, "start_date": 1502409600, "grade_low": "PK", "grade_high": "5", "city": "Broken Arrow", "state": "OK", "district_id": 33695, "district_name": "Union PS", "total_students": "459 students"}, {"school_id": 47672, "name": "Andersen Junior High", "lat": 33.3256, "lng": -111.875, "start_date": 1490659200, "grade_low": "6", "grade_high": "8", "city": "Chandler", "state": "AZ", "district_id": 4345, "district_name": "Chandler USD", "total_students": "888 students"}, {"school_id": 148602, "name": "Anderson Creek Primary", "lat": 35.2817, "lng": -78.9175, "start_date": 1528934400, "grade_low": "PK", "grade_high": "2", "city": "Bunnlevel", "state": "NC", "district_id": 12957, "district_name": "Harnett County Schools", "total_students": "620 students"}, {"school_id": 25864, "name": "Anderson Elementary", "lat": 45.6954, "lng": -122.649, "start_date": 1517270400, "grade_low": "KG", "grade_high": "5", "city": "Vancouver", "state": "WA", "district_id": 3175, "district_name": "Vancouver Public Schools", "total_students": "748 students"}, {"school_id": 49679, "name": "Anderson Elementary", "lat": 37.2474, "lng": -121.812, "start_date": 1435104000, "grade_low": "KG", "grade_high": "6", "city": "San Jose", "state": "CA", "district_id": 5545, "district_name": "Oak Grove Elementary", "total_students": "514 students"}, {"school_id": 125936, "name": "Anderson Elementary", "lat": 36.1956, "lng": -95.9641, "start_date": 1458604800, "grade_low": "PK", "grade_high": "5", "city": "Tulsa", "state": "OK", "district_id": 33685, "district_name": "Tulsa Public Schools", "total_students": "322 students"}, {"school_id": 23660, "name": "Anderson Elementary School", "lat": 33.1026, "lng": -96.6359, "start_date": 1476075600, "grade_low": "PK", "grade_high": "6", "city": "Allen", "state": "TX", "district_id": 1190, "district_name": "Allen ISD", "total_students": "479 students"}, {"school_id": 64133, "name": "Anderson Elementary School", "lat": 27.899, "lng": -82.5094, "start_date": 1470700800, "grade_low": "PK", "grade_high": "5", "city": "Tampa", "state": "FL", "district_id": 7107, "district_name": "Hillsborough County PS", "total_students": "382 students"}, {"school_id": 57955, "name": "Anderson High", "lat": 34.107, "lng": -117.273, "start_date": 1502150400, "grade_low": "KG", "grade_high": "12", "city": "San Bernardino", "state": "CA", "district_id": 5704, "district_name": "San Bernardino City USD", "total_students": "89 students"}, {"school_id": 24235, "name": "Anderson Mill Elementary", "lat": 30.4526, "lng": -97.8065, "start_date": 1471478400, "grade_low": "PK", "grade_high": "5", "city": "Austin", "state": "TX", "district_id": 2121, "district_name": "Round Rock ISD", "total_students": "591 students"}, {"school_id": 55117, "name": "Anderson W. Clark Magnet High", "lat": 34.2371, "lng": -118.254, "start_date": 1517875200, "grade_low": "9", "grade_high": "12", "city": "Glendale", "state": "CA", "district_id": 5220, "district_name": "Glendale USD", "total_students": "1,111"}, {"school_id": 78031, "name": "Andover Central High School", "lat": 37.6922, "lng": -97.1279, "start_date": 1459400400, "grade_low": "9", "grade_high": "12", "city": "Andover", "state": "KS", "district_id": 9179, "district_name": "Andover PS", "total_students": "809"}, {"school_id": 78032, "name": "Andover Central Middle School", "lat": 37.6926, "lng": -97.1246, "start_date": 1459400400, "grade_low": "6", "grade_high": "8", "city": "Andover", "state": "KS", "district_id": 9179, "district_name": "Andover PS", "total_students": "626 students"}, {"school_id": 78034, "name": "Andover Middle School", "lat": 37.7153, "lng": -97.1331, "start_date": 1459400400, "grade_low": "6", "grade_high": "8", "city": "Andover", "state": "KS", "district_id": 9179, "district_name": "Andover PS", "total_students": "730 students"}, {"school_id": 104665, "name": "Andrew J. Rickoff", "lat": 41.4634, "lng": -81.5795, "start_date": 1474329600, "grade_low": "PK", "grade_high": "8", "city": "Cleveland", "state": "OH", "district_id": 14404, "district_name": "Cleveland Metropolitan SD", "total_students": "459 students"}, {"school_id": 52899, "name": "Andrew Jackson Elementary", "lat": 33.7331, "lng": -116.218, "start_date": 1476403200, "grade_low": "KG", "grade_high": "5", "city": "Indio", "state": "CA", "district_id": 5119, "district_name": "Desert Sands USD", "total_students": "657 students"}, {"school_id": 52075, "name": "Andrew Jackson Elementary", "lat": 33.7325, "lng": -117.909, "start_date": 1409616000, "grade_low": "KG", "grade_high": "5", "city": "Santa Ana", "state": "CA", "district_id": 5742, "district_name": "Santa Ana USD", "total_students": "745 students"}, {"school_id": 151078, "name": "Andrew Jackson High", "lat": 34.5734, "lng": -80.6122, "start_date": 1571961600, "grade_low": "9", "grade_high": "12", "city": "Kershaw", "state": "SC", "district_id": 35459, "district_name": "Lancaster County SD", "total_students": "619"}, {"school_id": 63166, "name": "Andrew Jackson High School", "lat": 30.3623, "lng": -81.6552, "start_date": 1470700800, "grade_low": "9", "grade_high": "12", "city": "Jacksonville", "state": "FL", "district_id": 7089, "district_name": "Duval County Public Schools", "total_students": "991"}, {"school_id": 151076, "name": "Andrew Jackson Middle", "lat": 34.5731, "lng": -80.6148, "start_date": 1571961600, "grade_low": "6", "grade_high": "8", "city": "Kershaw", "state": "SC", "district_id": 35459, "district_name": "Lancaster County SD", "total_students": "499 students"}, {"school_id": 147554, "name": "Andrew Jackson Middle School", "lat": 28.5692, "lng": -80.8191, "start_date": 1470096000, "grade_low": "7", "grade_high": "8", "city": "Titusville", "state": "FL", "district_id": 7075, "district_name": "Brevard PS", "total_students": "549 students"}, {"school_id": 63165, "name": "Andrew Robinson Elementary School", "lat": 30.3517, "lng": -81.6566, "start_date": 1470700800, "grade_low": "PK", "grade_high": "5", "city": "Jacksonville", "state": "FL", "district_id": 7089, "district_name": "Duval County Public Schools", "total_students": "785 students"}, {"school_id": 98871, "name": "Andrews High", "lat": 35.985, "lng": -79.9898, "start_date": 1409616000, "grade_low": "9", "grade_high": "12", "city": "High Point", "state": "NC", "district_id": 12953, "district_name": "Guilford County Schools", "total_students": "700"}, {"school_id": 31107, "name": "Andrews PreK-8", "lat": 37.011, "lng": -76.3678, "start_date": 1517184000, "grade_low": "PK", "grade_high": "8", "city": "Hampton", "state": "VA", "district_id": 2823, "district_name": "Hampton City PS", "total_students": "1,000 students"}, {"school_id": 54938, "name": "Andros Karperos Middle", "lat": 39.1234, "lng": -121.646, "start_date": 1548892800, "grade_low": "6", "grade_high": "8", "city": "Yuba City", "state": "CA", "district_id": 5985, "district_name": "Yuba City USD", "total_students": "1,223 students"}, {"school_id": 71043, "name": "Andrus Elementary School", "lat": 43.6604, "lng": -116.344, "start_date": 1504569600, "grade_low": "PK", "grade_high": "5", "city": "Boise", "state": "ID", "district_id": 7751, "district_name": "West Ada SD", "total_students": "551 students"}, {"school_id": 25713, "name": "Angelo Giaudrone Middle School", "lat": 47.2119, "lng": -122.46, "start_date": 1408597200, "grade_low": "6", "grade_high": "8", "city": "Tacoma", "state": "WA", "district_id": 3158, "district_name": "Tacoma PS", "total_students": "621 students"}, {"school_id": 52538, "name": "Angier Elementary", "lat": 32.8052, "lng": -117.146, "start_date": 1426118400, "grade_low": "KG", "grade_high": "5", "city": "San Diego", "state": "CA", "district_id": 5711, "district_name": "San Diego USD", "total_students": "480 students"}, {"school_id": 98922, "name": "Angier Elementary", "lat": 35.503, "lng": -78.7363, "start_date": 1528934400, "grade_low": "3", "grade_high": "5", "city": "Angier", "state": "NC", "district_id": 12957, "district_name": "Harnett County Schools", "total_students": "464 students"}, {"school_id": 123341, "name": "Angus Valley Elementary", "lat": 36.0841, "lng": -96.129, "start_date": 1446595200, "grade_low": "PK", "grade_high": "5", "city": "Sand Springs", "state": "OK", "district_id": 33629, "district_name": "Sand Springs Public Schools", "total_students": "444 students"}, {"school_id": 68357, "name": "Anita White Carson Middle School", "lat": 33.5612, "lng": -83.1806, "start_date": 1582070400, "grade_low": "6", "grade_high": "8", "city": "Greensboro", "state": "GA", "district_id": 30785, "district_name": "Greene County Schools", "total_students": "337 students"}, {"school_id": 87026, "name": "Ann Arbor Trail Magnet School", "lat": 42.3471, "lng": -83.2611, "start_date": 1541635200, "grade_low": "ECE", "grade_high": "CE", "city": "Detroit", "state": "MI", "district_id": 10598, "district_name": "Detroit Public Schools", "total_students": "195 students"}, {"school_id": 150418, "name": "Ann Sobrato High", "lat": 37.1595, "lng": -121.669, "start_date": 1560124800, "grade_low": "9", "grade_high": "12", "city": "Morgan Hill", "state": "CA", "district_id": 5497, "district_name": "Morgan Hill Unified", "total_students": "1,408 students"}, {"school_id": 50912, "name": "Anna Hause Elementary", "lat": 33.9375, "lng": -116.962, "start_date": 1429488000, "grade_low": "KG", "grade_high": "5", "city": "Beaumont", "state": "CA", "district_id": 4941, "district_name": "Beaumont USD", "total_students": "704 students"}, {"school_id": 24484, "name": "Anna High School", "lat": 33.3645, "lng": -96.5621, "start_date": 1470787200, "grade_low": "9", "grade_high": "12", "city": "Anna", "state": "TX", "district_id": 1206, "district_name": "Anna ISD", "total_students": "947"}, {"school_id": 24930, "name": "Anna May Daulton Elementary", "lat": 32.6063, "lng": -97.046, "start_date": 1536537600, "grade_low": "PK", "grade_high": "4", "city": "Grand Prairie", "state": "TX", "district_id": 1859, "district_name": "Mansfield ISD", "total_students": "743 students"}, {"school_id": 114191, "name": "Anna Merritt Elementary School", "lat": 43.1741, "lng": -78.705, "start_date": 1480312800, "grade_low": "KG", "grade_high": "4", "city": "Lockport", "state": "NY", "district_id": 32357, "district_name": "Lockport City School District", "total_students": "333 students"}, {"school_id": 24485, "name": "Anna Middle School", "lat": 33.3449, "lng": -96.5484, "start_date": 1470787200, "grade_low": "6", "grade_high": "8", "city": "Anna", "state": "TX", "district_id": 1206, "district_name": "Anna ISD", "total_students": "861 students"}, {"school_id": 41110, "name": "Anna Smith School", "lat": 40.746, "lng": -114.042, "start_date": 1439510400, "grade_low": "KG", "grade_high": "6", "city": "Wendover", "state": "UT", "district_id": 2503, "district_name": "Tooele School District", "total_students": "222 students"}, {"school_id": 37053, "name": "Annette Perry Elementary", "lat": 32.575, "lng": -97.1433, "start_date": 1536537600, "grade_low": "PK", "grade_high": "4", "city": "Mansfield", "state": "TX", "district_id": 1859, "district_name": "Mansfield ISD", "total_students": "472 students"}, {"school_id": 63167, "name": "Annie R. Morgan Elementary School", "lat": 30.336, "lng": -81.7173, "start_date": 1470700800, "grade_low": "PK", "grade_high": "5", "city": "Jacksonville", "state": "FL", "district_id": 7089, "district_name": "Duval County Public Schools", "total_students": "360 students"}, {"school_id": 66019, "name": "ANONA ELEMENTARY SCHOOL", "lat": 27.8849, "lng": -82.8318, "start_date": 1456704000, "grade_low": "PK", "grade_high": "5", "city": "Largo", "state": "FL", "district_id": 7130, "district_name": "Pinellas County Schools", "total_students": "459 students"}, {"school_id": 149369, "name": "Ansel Adams Elementary", "lat": 38.0331, "lng": -121.275, "start_date": 1543276800, "grade_low": "KG", "grade_high": "5", "city": "Stockton", "state": "CA", "district_id": 5391, "district_name": "Lodi USD", "total_students": "738 students"}, {"school_id": 149991, "name": "Ansel Adams Elementary Staff", "lat": 38.1239, "lng": -121.248, "start_date": 1543276800, "grade_low": "KG", "grade_high": "5", "city": "Lodi", "state": "CA", "district_id": 5391, "district_name": "Lodi USD", "total_students": "752 students"}, {"school_id": 30308, "name": "Antelope Elementary", "lat": 41.0872, "lng": -112.027, "start_date": 1389744000, "grade_low": "KG", "grade_high": "6", "city": "Clearfield", "state": "UT", "district_id": 2421, "district_name": "Davis District", "total_students": "760 students"}, {"school_id": 50347, "name": "Antelope Elementary", "lat": 34.5586, "lng": -117.952, "start_date": 1550188800, "grade_low": "KG", "grade_high": "8", "city": "Littlerock", "state": "CA", "district_id": 5311, "district_name": "Keppel Union ESD", "total_students": "309 students"}, {"school_id": 147977, "name": "Antelope Valley High", "lat": 34.6996, "lng": -118.13, "start_date": 1511136000, "grade_low": "9", "grade_high": "12", "city": "Lancaster", "state": "CA", "district_id": 4912, "district_name": "Antelope Valley UHSD", "total_students": "1,664"}, {"school_id": 48123, "name": "Anthem School", "lat": 33.8574, "lng": -112.132, "start_date": 1470200400, "grade_low": "PK", "grade_high": "8", "city": "Phoenix", "state": "AZ", "district_id": 4396, "district_name": "Deer Valley Unified District", "total_students": "592 students"}, {"school_id": 30778, "name": "Anthony Burns Elementary", "lat": 38.4393, "lng": -77.416, "start_date": 1484092800, "grade_low": "PK", "grade_high": "5", "city": "Stafford Courthouse", "state": "VA", "district_id": 2884, "district_name": "Stafford County PS", "total_students": "851 students"}, {"school_id": 50075, "name": "Anthony Elementary", "lat": 36.7561, "lng": -119.792, "start_date": 1553558400, "grade_low": "KG", "grade_high": "6", "city": "Fresno", "state": "CA", "district_id": 5205, "district_name": "Fresno USD", "total_students": "500 students"}, {"school_id": 55069, "name": "Anthony Elementary", "lat": 33.7401, "lng": -117.951, "start_date": 1520812800, "grade_low": "KG", "grade_high": "6", "city": "Westminster", "state": "CA", "district_id": 5211, "district_name": "Garden Grove USD", "total_students": "360 students"}, {"school_id": 65296, "name": "Anthony Elementary School", "lat": 29.2889, "lng": -82.1105, "start_date": 1472515200, "grade_low": "PK", "grade_high": "5", "city": "Anthony", "state": "FL", "district_id": 7120, "district_name": "Marion County Public Schools", "total_students": "390 students"}, {"school_id": 113710, "name": "Anthony Elementary School", "lat": 39.3203, "lng": -94.9138, "start_date": 1553126400, "grade_low": "PK", "grade_high": "5", "city": "Leavenworth", "state": "KS", "district_id": 9326, "district_name": "Leavenworth USD", "total_students": "432 students"}, {"school_id": 149356, "name": "Antioch Elementary School", "lat": 35.0588, "lng": -80.7225, "start_date": 1565568000, "grade_low": "KG", "grade_high": "5", "city": "Matthews", "state": "NC", "district_id": 13055, "district_name": "Union County PS", "total_students": "770 students"}, {"school_id": 93080, "name": "Antioch Middle", "lat": 39.2113, "lng": -94.5545, "start_date": 1456358400, "grade_low": "6", "grade_high": "8", "city": "Gladstone", "state": "MO", "district_id": 12075, "district_name": "North Kansas City School District", "total_students": "873 students"}, {"school_id": 58005, "name": "Anton Elementary", "lat": 34.1272, "lng": -117.268, "start_date": 1502150400, "grade_low": "KG", "grade_high": "6", "city": "San Bernardino", "state": "CA", "district_id": 5704, "district_name": "San Bernardino City USD", "total_students": "695 students"}, {"school_id": 104666, "name": "Anton Grdina", "lat": 41.4783, "lng": -81.639, "start_date": 1474329600, "grade_low": "PK", "grade_high": "8", "city": "Cleveland", "state": "OH", "district_id": 14404, "district_name": "Cleveland Metropolitan SD", "total_students": "398 students"}, {"school_id": 111663, "name": "Antonia Middle School", "lat": 38.3543, "lng": -90.4434, "start_date": 1493355600, "grade_low": "6", "grade_high": "8", "city": "Barnhart", "state": "MO", "district_id": 11874, "district_name": "Fox C6 SD", "total_students": "533 students"}, {"school_id": 149146, "name": "Antonio Del Buono Elementary", "lat": 37.0307, "lng": -121.587, "start_date": 1534204800, "grade_low": "KG", "grade_high": "5", "city": "Gilroy", "state": "CA", "district_id": 5219, "district_name": "Gilroy Unified", "total_students": "483 students"}, {"school_id": 149986, "name": "Antwerp Primary School", "lat": 44.1992, "lng": -75.6113, "start_date": 1548374400, "grade_low": "KG", "grade_high": "3", "city": "Antwerp", "state": "NY", "district_id": 14217, "district_name": "Indian River Central SD", "total_students": "218 students"}, {"school_id": 51467, "name": "Anza Elementary", "lat": 32.7813, "lng": -116.948, "start_date": 1409270400, "grade_low": "KG", "grade_high": "5", "city": "El Cajon", "state": "CA", "district_id": 5002, "district_name": "Cajon Valley Union SD", "total_students": "554 students"}, {"school_id": 150133, "name": "Anza Elementary", "lat": 33.8344, "lng": -118.365, "start_date": 1553731200, "grade_low": "KG", "grade_high": "5", "city": "Torrance", "state": "CA", "district_id": 5876, "district_name": "Torrance USD", "total_students": "646 students"}, {"school_id": 151156, "name": "Anzar High School", "lat": 36.881, "lng": -121.556, "start_date": 1581984000, "grade_low": "9", "grade_high": "12", "city": "San Juan Bautista", "state": "CA", "district_id": 35465, "district_name": "Aromas-San Juan USD", "total_students": "357 students"}, {"school_id": 79254, "name": "Apache Elementary", "lat": 38.9661, "lng": -94.7113, "start_date": 0, "grade_low": "KG", "grade_high": "6", "city": "Overland Park", "state": "KS", "district_id": 9421, "district_name": "Shawnee Mission School District", "total_students": "587 students"}, {"school_id": 102098, "name": "Apache Elementary", "lat": 35.0785, "lng": -106.502, "start_date": 1567468800, "grade_low": "PK", "grade_high": "5", "city": "Albuquerque", "state": "NM", "district_id": 35438, "district_name": "Albuquerque Public Schools", "total_students": "328 students"}, {"school_id": 149766, "name": "Apache Junction High", "lat": 33.3914, "lng": -111.562, "start_date": 1574899200, "grade_low": "9", "grade_high": "12", "city": "Apache Junction", "state": "AZ", "district_id": 4259, "district_name": "Apache Junction USD", "total_students": "1,110"}, {"school_id": 66799, "name": "Apalachee High School", "lat": 33.9484, "lng": -83.7857, "start_date": 1474934400, "grade_low": "9", "grade_high": "12", "city": "Winder", "state": "GA", "district_id": 7153, "district_name": "Barrow County School System", "total_students": "1,811 students"}, {"school_id": 64134, "name": "Aparicio-Levy Technical College", "lat": 27.9907, "lng": -82.3324, "start_date": 1470700800, "grade_low": "9", "grade_high": "12", "city": "Tampa", "state": "FL", "district_id": 7107, "district_name": "Hillsborough County PS", "total_students": "51 undergraduate students"}, {"school_id": 148172, "name": "Apollo Elementary", "lat": 47.4977, "lng": -122.139, "start_date": 1503014400, "grade_low": "PK", "grade_high": "5", "city": "Renton", "state": "WA", "district_id": 3006, "district_name": "Issaquah SD", "total_students": "637 students"}, {"school_id": 91482, "name": "Apollo High School", "lat": 45.5703, "lng": -94.2105, "start_date": 1471564800, "grade_low": "9", "grade_high": "12", "city": "St Cloud", "state": "MN", "district_id": 11648, "district_name": "St. Cloud Area SD 742", "total_students": "1,468"}, {"school_id": 28221, "name": "Apollo Junior High", "lat": 32.9522, "lng": -96.6951, "start_date": 1472083200, "grade_low": "7", "grade_high": "8", "city": "Richardson", "state": "TX", "district_id": 2091, "district_name": "Richardson ISD", "total_students": "650"}, {"school_id": 116429, "name": "Apple Creek Elementary", "lat": 35.3265, "lng": -97.4703, "start_date": 1502236800, "grade_low": "PK", "grade_high": "6", "city": "Moore", "state": "OK", "district_id": 33535, "district_name": "Moore PS", "total_students": "562 students"}, {"school_id": 148472, "name": "Apple Digital Academy", "lat": 30.1379, "lng": -90.9556, "start_date": 1513209600, "grade_low": "ECE", "grade_high": "CE", "city": "Darrow", "state": "LA", "district_id": 9625, "district_name": "Ascension PS", "total_students": "233 students"}, {"school_id": 45723, "name": "Apple Glen Elementary School", "lat": 36.3751, "lng": -94.1894, "start_date": 1433376000, "grade_low": "KG", "grade_high": "4", "city": "Bentonville", "state": "AR", "district_id": 3981, "district_name": "Bentonville SD", "total_students": "599 students"}, {"school_id": 31215, "name": "Apple Pie Ridge Elementary", "lat": 39.2148, "lng": -78.1797, "start_date": 1456704000, "grade_low": "PK", "grade_high": "5", "city": "Winchester", "state": "VA", "district_id": 2813, "district_name": "Frederick County PS", "total_students": "456 students"}, {"school_id": 98984, "name": "Apple Valley Middle School", "lat": 35.3621, "lng": -82.4214, "start_date": 1425016800, "grade_low": "6", "grade_high": "8", "city": "Hendersonville", "state": "NC", "district_id": 12960, "district_name": "Henderson County Schools", "total_students": "906 students"}, {"school_id": 147763, "name": "APPLES Pre-K Program", "lat": 41.0514, "lng": -73.5427, "start_date": 1480896000, "grade_low": "PK", "grade_high": "PK", "city": "Stamford", "state": "CT", "district_id": 2711, "district_name": "Stamford PS", "total_students": "162 students"}, {"school_id": 59760, "name": "Appleton Elementary School", "lat": 39.1216, "lng": -108.616, "start_date": 1422403200, "grade_low": "PK", "grade_high": "5", "city": "Grand Junction", "state": "CO", "district_id": 6474, "district_name": "Mesa County Valley School District 51", "total_students": "442 students"}, {"school_id": 147700, "name": "Apricot Valley Elementary", "lat": 37.4708, "lng": -121.153, "start_date": 1476835200, "grade_low": "KG", "grade_high": "5", "city": "Patterson", "state": "CA", "district_id": 5598, "district_name": "Patterson Joint USD", "total_students": "742 students"}, {"school_id": 54939, "name": "April Lane Elementary", "lat": 39.1553, "lng": -121.629, "start_date": 1548892800, "grade_low": "KG", "grade_high": "5", "city": "Yuba City", "state": "CA", "district_id": 5985, "district_name": "Yuba City USD", "total_students": "466 students"}, {"school_id": 149249, "name": "APS Early Beginnings", "lat": 39.7291, "lng": -104.862, "start_date": 1536192000, "grade_low": "PK", "grade_high": "PK", "city": "Aurora", "state": "CO", "district_id": 30669, "district_name": "Aurora Public Schools", "total_students": "44 students"}, {"school_id": 57602, "name": "Aptos High", "lat": 36.9773, "lng": -121.862, "start_date": 1448841600, "grade_low": "9", "grade_high": "12", "city": "Aptos", "state": "CA", "district_id": 5582, "district_name": "Pajaro Valley Unified", "total_students": "1,478 students"}, {"school_id": 57603, "name": "Aptos Junior High", "lat": 36.9776, "lng": -121.882, "start_date": 1448841600, "grade_low": "7", "grade_high": "8", "city": "Aptos", "state": "CA", "district_id": 5582, "district_name": "Pajaro Valley Unified", "total_students": "681 students"}, {"school_id": 148259, "name": "Aragon Elementary", "lat": 38.6816, "lng": -104.701, "start_date": 1509494400, "grade_low": "KG", "grade_high": "5", "city": "Fountain", "state": "CO", "district_id": 30689, "district_name": "Fountain-Fort Carson School District 8", "total_students": "416 students"}, {"school_id": 33719, "name": "Arcadia Elementary", "lat": 40.6631, "lng": -111.973, "start_date": 1442534400, "grade_low": "KG", "grade_high": "6", "city": "Salt Lake City", "state": "UT", "district_id": 2437, "district_name": "Granite School District", "total_students": "463 students"}, {"school_id": 110949, "name": "Arcadia Elementary", "lat": 47.95, "lng": -117.458, "start_date": 1574035200, "grade_low": "3", "grade_high": "5", "city": "Deer Park", "state": "WA", "district_id": 35461, "district_name": "Deer Park School District", "total_students": "447 students"}, {"school_id": 44337, "name": "Arcadia Elementary School", "lat": 33.1991, "lng": -87.4887, "start_date": 1490659200, "grade_low": "PK", "grade_high": "5", "city": "Tuscaloosa", "state": "AL", "district_id": 3949, "district_name": "Tuscaloosa City Schools", "total_students": "447 students"}, {"school_id": 47348, "name": "Arcadia High School", "lat": 33.4934, "lng": -111.982, "start_date": 1495152000, "grade_low": "9", "grade_high": "12", "city": "Phoenix", "state": "AZ", "district_id": 4764, "district_name": "Scottsdale USD", "total_students": "1,675"}, {"school_id": 50408, "name": "Arcadia High School", "lat": 34.1298, "lng": -118.037, "start_date": 1421107200, "grade_low": "9", "grade_high": "12", "city": "Arcadia", "state": "CA", "district_id": 4915, "district_name": "Arcadia USD", "total_students": "3,161"}, {"school_id": 99455, "name": "Archdale Elementary", "lat": 35.913, "lng": -79.9753, "start_date": 1424736000, "grade_low": "KG", "grade_high": "5", "city": "Archdale", "state": "NC", "district_id": 3244, "district_name": "Randolph County School System", "total_students": "366 students"}, {"school_id": 99457, "name": "Archdale-Trinity Middle", "lat": 35.886, "lng": -79.9542, "start_date": 1424736000, "grade_low": "7", "grade_high": "8", "city": "Trinity", "state": "NC", "district_id": 3244, "district_name": "Randolph County School System", "total_students": "683 students"}, {"school_id": 36772, "name": "Arcola Elementary School", "lat": 38.9369, "lng": -77.5596, "start_date": 1476230400, "grade_low": "PK", "grade_high": "5", "city": "Aldie", "state": "VA", "district_id": 2837, "district_name": "Loudoun County PS", "total_students": "919 students"}, {"school_id": 118943, "name": "Ardenwald Elementary", "lat": 45.4578, "lng": -122.624, "start_date": 1517184000, "grade_low": "KG", "grade_high": "5", "city": "Milwaukie", "state": "OR", "district_id": 33792, "district_name": "North Clackamas SD", "total_students": "428 students"}, {"school_id": 51562, "name": "Ardenwood Elementary", "lat": 37.5725, "lng": -122.053, "start_date": 1475452800, "grade_low": "KG", "grade_high": "6", "city": "Fremont", "state": "CA", "district_id": 5199, "district_name": "Fremont Unified School District", "total_students": "963 students"}, {"school_id": 98092, "name": "Ardrey Kell High", "lat": 35.0298, "lng": -80.8267, "start_date": 1422576000, "grade_low": "9", "grade_high": "12", "city": "Charlotte", "state": "NC", "district_id": 12902, "district_name": "Charlotte Mecklenburg Schools", "total_students": "3,315"}, {"school_id": 91541, "name": "Area Learning Center", "lat": 45.0781, "lng": -93.257, "start_date": 1485907200, "grade_low": "9", "grade_high": "12", "city": "Fridley", "state": "MN", "district_id": 11345, "district_name": "Fridley PS", "total_students": "96 students"}, {"school_id": 150541, "name": "Area Learning Center", "lat": 45.106, "lng": -93.2121, "start_date": 1560211200, "grade_low": "ECE", "grade_high": "CE", "city": "Mounds View", "state": "MN", "district_id": 11504, "district_name": "Mounds View Public Schools", "total_students": "95 students"}, {"school_id": 149332, "name": "Argyle Elementary School", "lat": 30.1767, "lng": -81.7879, "start_date": 1543190400, "grade_low": "PK", "grade_high": "5", "city": "Orange Park", "state": "FL", "district_id": 7080, "district_name": "Clay County PS", "total_students": "685 students"}, {"school_id": 49790, "name": "Arizona Middle", "lat": 33.8929, "lng": -117.465, "start_date": 1502928000, "grade_low": "6", "grade_high": "8", "city": "Riverside", "state": "CA", "district_id": 4901, "district_name": "Alvord USD", "total_students": "918 students"}, {"school_id": 148965, "name": "Arkansas Elementary", "lat": 39.6923, "lng": -104.785, "start_date": 1536192000, "grade_low": "PK", "grade_high": "5", "city": "Aurora", "state": "CO", "district_id": 30669, "district_name": "Aurora Public Schools", "total_students": "411 students"}, {"school_id": 49791, "name": "Arlanza Elementary", "lat": 33.9416, "lng": -117.468, "start_date": 1502928000, "grade_low": "KG", "grade_high": "5", "city": "Riverside", "state": "CA", "district_id": 4901, "district_name": "Alvord USD", "total_students": "523 students"}, {"school_id": 147111, "name": "Arlington Community High", "lat": 38.8655, "lng": -77.0881, "start_date": 1445212800, "grade_low": "9", "grade_high": "12", "city": "Arlington", "state": "VA", "district_id": 2774, "district_name": "Arlington PS", "total_students": "157 students"}, {"school_id": 28470, "name": "Arlington Elementary", "lat": 47.7154, "lng": -117.373, "start_date": 1564617600, "grade_low": "PK", "grade_high": "6", "city": "Spokane", "state": "WA", "district_id": 3144, "district_name": "Spokane Public Schools", "total_students": "630 students"},